$GPGGA,095344.00,5407.2213616,N,00851.5406301,E,1,22,0.60,9.5138,M,39.7435,M,,*50
$GPVTG,177.142,T,173.408,M,5.6835,N,10.5259,K,A*1B
$GPZDA,095344.00,26,05,2024,00,00*6C
$GPHDT,175.996,T*30
$GPATT,095344.00,PI,0.0676,0.0463,RO,-0.9386,0.5286,HE,355.9959,0.0463,F,F,F,*10
$GPRMC,095344.00,A,5407.2213616,N,00851.5406301,E,5.6835,177.142,260524,3.734,W,A*1B
$GPATT,095344.10,PI,0.0669,0.0463,RO,-0.8976,0.5286,HE,355.9961,0.0463,F,F,F,*10
$GPHDT,175.992,T*34
$GPATT,095344.20,PI,0.0680,0.0463,RO,-0.9211,0.5286,HE,355.9917,0.0463,F,F,F,*1E
$GPATT,095344.30,PI,0.0733,0.0463,RO,-0.9592,0.5286,HE,355.9868,0.0463,F,F,F,*13
$GPHDT,175.978,T*30
$GPATT,095344.40,PI,0.0684,0.0463,RO,-0.9567,0.5286,HE,355.9784,0.0463,F,F,F,*1E
$GPATT,095344.50,PI,0.0635,0.0463,RO,-0.9718,0.5286,HE,355.9717,0.0463,F,F,F,*15
$GPHDT,175.978,T*30
$GPATT,095344.60,PI,0.0752,0.0463,RO,-0.9195,0.5286,HE,355.9780,0.0463,F,F,F,*1B
$GPATT,095344.70,PI,0.0577,0.0463,RO,-0.9755,0.5286,HE,355.9695,0.0463,F,F,F,*10
$GPHDT,175.970,T*38
$GPATT,095344.80,PI,0.0497,0.0463,RO,-0.8391,0.5286,HE,355.9702,0.0463,F,F,F,*12
$GPATT,095344.90,PI,0.0617,0.0463,RO,-0.8770,0.5286,HE,355.9649,0.0463,F,F,F,*1C
$GPGGA,095345.00,5407.2197740,N,00851.5407688,E,1,21,0.63,9.5013,M,39.7435,M,,*51
$GPVTG,176.991,T,173.256,M,5.7572,N,10.6624,K,A*13
$GPZDA,095345.00,26,05,2024,00,00*6D
$GPHDT,175.972,T*3A
$GPATT,095345.00,PI,0.0538,0.0463,RO,-0.8113,0.5286,HE,355.9717,0.0463,F,F,F,*13
$GPRMC,095345.00,A,5407.2197740,N,00851.5407688,E,5.7572,176.991,260524,3.734,W,A*1A
$GPATT,095345.10,PI,0.0648,0.0463,RO,-0.8601,0.5286,HE,355.9754,0.0463,F,F,F,*15
$GPHDT,175.981,T*36
$GPATT,095345.20,PI,0.0630,0.0463,RO,-0.9198,0.5286,HE,355.9811,0.0463,F,F,F,*11
$GPATT,095345.30,PI,0.0683,0.0463,RO,-0.8413,0.5286,HE,355.9850,0.0463,F,F,F,*1A
$GPHDT,175.980,T*37
$GPATT,095345.40,PI,0.0704,0.0463,RO,-0.8207,0.5286,HE,355.9803,0.0463,F,F,F,*16
$GPATT,095345.50,PI,0.0669,0.0463,RO,-0.7217,0.5286,HE,355.9916,0.0463,F,F,F,*16
$GPHDT,175.994,T*32
$GPATT,095345.60,PI,0.0743,0.0463,RO,-0.7296,0.5286,HE,355.9941,0.0463,F,F,F,*17
$GPATT,095345.70,PI,0.0696,0.0463,RO,-0.7190,0.5286,HE,356.0043,0.0463,F,F,F,*1B
$GPHDT,176.006,T*33
$GPATT,095345.80,PI,0.0847,0.0463,RO,-0.8115,0.5286,HE,356.0065,0.0463,F,F,F,*10
$GPATT,095345.90,PI,0.0918,0.0463,RO,-0.7309,0.5286,HE,356.0171,0.0463,F,F,F,*1E
$GPGGA,095346.00,5407.2181657,N,00851.5409276,E,1,22,0.60,9.4765,M,39.7435,M,,*5E
$GPVTG,177.218,T,173.483,M,5.8224,N,10.7831,K,A*16
$GPZDA,095346.00,26,05,2024,00,00*6E
$GPHDT,176.030,T*36
$GPATT,095346.00,PI,0.0865,0.0463,RO,-0.6462,0.5286,HE,356.0302,0.0463,F,F,F,*12
$GPRMC,095346.00,A,5407.2181657,N,00851.5409276,E,5.8224,177.218,260524,3.734,W,A*12
$GPATT,095346.10,PI,0.0832,0.0463,RO,-0.7643,0.5286,HE,356.0303,0.0463,F,F,F,*10
$GPHDT,176.040,T*31
$GPATT,095346.20,PI,0.0815,0.0463,RO,-0.7397,0.5286,HE,356.0399,0.0463,F,F,F,*19
$GPATT,095346.30,PI,0.0819,0.0463,RO,-0.6816,0.5286,HE,356.0545,0.0463,F,F,F,*10
$GPHDT,176.060,T*33
$GPATT,095346.40,PI,0.0906,0.0463,RO,-0.6682,0.5286,HE,356.0599,0.0463,F,F,F,*1A
$GPATT,095346.50,PI,0.0851,0.0463,RO,-0.7003,0.5286,HE,356.0711,0.0463,F,F,F,*14
$GPHDT,176.080,T*3D
$GPATT,095346.60,PI,0.0829,0.0463,RO,-0.7654,0.5286,HE,356.0800,0.0463,F,F,F,*13
$GPATT,095346.70,PI,0.0772,0.0463,RO,-0.6213,0.5286,HE,356.0988,0.0463,F,F,F,*14
$GPHDT,176.108,T*3C
$GPATT,095346.80,PI,0.0890,0.0463,RO,-0.5655,0.5286,HE,356.1085,0.0463,F,F,F,*18
$GPATT,095346.90,PI,0.0989,0.0463,RO,-0.6833,0.5286,HE,356.1164,0.0463,F,F,F,*13
$GPGGA,095347.00,5407.2165367,N,00851.5410662,E,1,22,0.60,9.4657,M,39.7435,M,,*5A
$GPVTG,177.284,T,173.550,M,5.9154,N,10.9554,K,A*19
$GPZDA,095347.00,26,05,2024,00,00*6F
$GPHDT,176.137,T*30
$GPATT,095347.00,PI,0.0992,0.0463,RO,-0.5164,0.5286,HE,356.1374,0.0463,F,F,F,*1A
$GPRMC,095347.00,A,5407.2165367,N,00851.5410662,E,5.9154,177.284,260524,3.734,W,A*16
$GPATT,095347.10,PI,0.0997,0.0463,RO,-0.7121,0.5286,HE,356.1414,0.0463,F,F,F,*1C
$GPHDT,176.159,T*38
$GPATT,095347.20,PI,0.0923,0.0463,RO,-0.5538,0.5286,HE,356.1588,0.0463,F,F,F,*1A
$GPATT,095347.30,PI,0.0929,0.0463,RO,-0.6938,0.5286,HE,356.1587,0.0463,F,F,F,*11
$GPHDT,176.174,T*37
$GPATT,095347.40,PI,0.0950,0.0463,RO,-0.6034,0.5286,HE,356.1743,0.0463,F,F,F,*17
$GPATT,095347.50,PI,0.1014,0.0463,RO,-0.5105,0.5286,HE,356.1774,0.0463,F,F,F,*1A
$RDENS,16,3562589,PC
$GPHDT,176.175,T*36
$GPATT,095347.60,PI,0.0851,0.0463,RO,-0.7094,0.5286,HE,356.1751,0.0463,F,F,F,*1D
$GPATT,095347.70,PI,0.0836,0.0463,RO,-0.5706,0.5286,HE,356.1852,0.0463,F,F,F,*1F
$GPHDT,176.193,T*3E
$GPATT,095347.80,PI,0.0902,0.0463,RO,-0.5579,0.5286,HE,356.1926,0.0463,F,F,F,*1E
$GPATT,095347.90,PI,0.0765,0.0463,RO,-0.5926,0.5286,HE,356.1915,0.0463,F,F,F,*16
$GPGGA,095348.00,5407.2148925,N,00851.5411994,E,1,22,0.60,9.4663,M,39.7435,M,,*56
$GPVTG,177.130,T,173.396,M,5.9719,N,11.0599,K,A*1F
$GPZDA,095348.00,26,05,2024,00,00*60
$GPHDT,176.201,T*36
$GPATT,095348.00,PI,0.0863,0.0463,RO,-0.6189,0.5286,HE,356.2007,0.0463,F,F,F,*1E
$GPRMC,095348.00,A,5407.2148925,N,00851.5411994,E,5.9719,177.130,260524,3.734,W,A*1E
$GPATT,095348.10,PI,0.0710,0.0463,RO,-0.5252,0.5286,HE,356.2035,0.0463,F,F,F,*13
$GPHDT,176.206,T*31
$GPATT,095348.20,PI,0.0887,0.0463,RO,-0.5301,0.5286,HE,356.2057,0.0463,F,F,F,*12
$GPATT,095348.30,PI,0.0870,0.0463,RO,-0.4610,0.5286,HE,356.2035,0.0463,F,F,F,*1B
$GPHDT,176.203,T*34
$GPATT,095348.40,PI,0.1015,0.0463,RO,-0.4914,0.5286,HE,356.2032,0.0463,F,F,F,*1A
$GPATT,095348.50,PI,0.0792,0.0463,RO,-0.5402,0.5286,HE,356.1891,0.0463,F,F,F,*1B
$GPHDT,176.197,T*3A
$GPATT,095348.60,PI,0.0854,0.0463,RO,-0.4394,0.5286,HE,356.1965,0.0463,F,F,F,*1E
$GPATT,095348.70,PI,0.0968,0.0463,RO,-0.4200,0.5286,HE,356.1913,0.0463,F,F,F,*1C
$GPHDT,176.186,T*3A
$GPATT,095348.80,PI,0.0832,0.0463,RO,-0.3433,0.5286,HE,356.1858,0.0463,F,F,F,*12
$GPATT,095348.90,PI,0.0804,0.0463,RO,-0.4661,0.5286,HE,356.1732,0.0463,F,F,F,*17
$GPGGA,095349.00,5407.2132310,N,00851.5413547,E,1,21,0.65,9.4866,M,39.7435,M,,*5B
$GPVTG,176.854,T,173.119,M,6.0250,N,11.1583,K,A*18
$RDENS,17,3562736,PC
$GPZDA,095349.00,26,05,2024,00,00*61
$GPHDT,176.157,T*36
$GPATT,095349.00,PI,0.0747,0.0463,RO,-0.4340,0.5286,HE,356.1567,0.0463,F,F,F,*13
$GPRMC,095349.00,A,5407.2132310,N,00851.5413547,E,6.0250,176.854,260524,3.734,W,A*16
$GPATT,095349.10,PI,0.0846,0.0463,RO,-0.3723,0.5286,HE,356.1530,0.0463,F,F,F,*18
$GPHDT,176.140,T*30
$GPATT,095349.20,PI,0.0802,0.0463,RO,-0.3396,0.5286,HE,356.1400,0.0463,F,F,F,*13
$GPATT,095349.30,PI,0.0797,0.0463,RO,-0.3256,0.5286,HE,356.1235,0.0463,F,F,F,*1C
$GPHDT,176.110,T*35
$GPATT,095349.40,PI,0.0757,0.0463,RO,-0.3762,0.5286,HE,356.1101,0.0463,F,F,F,*11
$GPATT,095349.50,PI,0.0677,0.0463,RO,-0.4774,0.5286,HE,356.0843,0.0463,F,F,F,*1D
$GPHDT,176.067,T*34
$GPATT,095349.60,PI,0.0700,0.0463,RO,-0.4672,0.5286,HE,356.0667,0.0463,F,F,F,*10
$GPATT,095349.70,PI,0.0799,0.0463,RO,-0.4407,0.5286,HE,356.0430,0.0463,F,F,F,*11
$GPHDT,176.020,T*37
$GPATT,095349.80,PI,0.0694,0.0463,RO,-0.4300,0.5286,HE,356.0198,0.0463,F,F,F,*15
$GPATT,095349.90,PI,0.0753,0.0463,RO,-0.4262,0.5286,HE,356.0011,0.0463,F,F,F,*1B
$GPGGA,095350.00,5407.2115627,N,00851.5416085,E,1,22,0.60,9.5591,M,39.7435,M,,*5B
$GPVTG,176.821,T,173.087,M,6.1201,N,11.3344,K,A*16
$GPZDA,095350.00,26,05,2024,00,00*69
$GPHDT,175.973,T*3B
$GPATT,095350.00,PI,0.0792,0.0463,RO,-0.4021,0.5286,HE,355.9726,0.0463,F,F,F,*1B
$GPRMC,095350.00,A,5407.2115627,N,00851.5416085,E,6.1201,176.821,260524,3.734,W,A*13
$GPATT,095350.10,PI,0.0764,0.0463,RO,-0.4319,0.5286,HE,355.9503,0.0463,F,F,F,*1E
$GPHDT,175.915,T*3B
$GPATT,095350.20,PI,0.0687,0.0463,RO,-0.4368,0.5286,HE,355.9145,0.0463,F,F,F,*11
$GPATT,095350.30,PI,0.0669,0.0463,RO,-0.4173,0.5286,HE,355.8884,0.0463,F,F,F,*1D
$GPHDT,175.857,T*3C
$GPATT,095350.40,PI,0.0719,0.0463,RO,-0.3675,0.5286,HE,355.8574,0.0463,F,F,F,*18
$GPATT,095350.50,PI,0.0668,0.0463,RO,-0.4137,0.5286,HE,355.8219,0.0463,F,F,F,*14
$RDENS,18,3562883,PC
$GPHDT,175.796,T*3E
$GPATT,095350.60,PI,0.0754,0.0463,RO,-0.3725,0.5286,HE,355.7961,0.0463,F,F,F,*10
$GPATT,095350.70,PI,0.0713,0.0463,RO,-0.3812,0.5286,HE,355.7596,0.0463,F,F,F,*1D
$GPHDT,175.730,T*32
$GPATT,095350.80,PI,0.0840,0.0463,RO,-0.4220,0.5286,HE,355.7303,0.0463,F,F,F,*1D
$GPATT,095350.90,PI,0.0836,0.0463,RO,-0.5533,0.5286,HE,355.6998,0.0463,F,F,F,*10
$GPGGA,095351.00,5407.2098571,N,00851.5417600,E,1,21,0.62,9.5434,M,39.7435,M,,*5B
$GPVTG,177.168,T,173.433,M,6.1770,N,11.4397,K,A*12
$GPZDA,095351.00,26,05,2024,00,00*68
$GPHDT,175.665,T*33
$GPATT,095351.00,PI,0.0910,0.0463,RO,-0.5603,0.5286,HE,355.6654,0.0463,F,F,F,*12
$GPRMC,095351.00,A,5407.2098571,N,00851.5417600,E,6.1770,177.168,260524,3.734,W,A*1A
$GPATT,095351.10,PI,0.0837,0.0463,RO,-0.5565,0.5286,HE,355.6301,0.0463,F,F,F,*11
$GPHDT,175.598,T*32
$GPATT,095351.20,PI,0.0933,0.0463,RO,-0.5762,0.5286,HE,355.5981,0.0463,F,F,F,*13
$GPATT,095351.30,PI,0.0751,0.0463,RO,-0.6269,0.5286,HE,355.5588,0.0463,F,F,F,*10
$GPHDT,175.528,T*39
$GPATT,095351.40,PI,0.1029,0.0463,RO,-0.5378,0.5286,HE,355.5275,0.0463,F,F,F,*19
$GPATT,095351.50,PI,0.0968,0.0463,RO,-0.5708,0.5286,HE,355.4940,0.0463,F,F,F,*1A
$GPHDT,175.453,T*34
$GPATT,095351.60,PI,0.0949,0.0463,RO,-0.6386,0.5286,HE,355.4533,0.0463,F,F,F,*13
$GPATT,095351.70,PI,0.0918,0.0463,RO,-0.7057,0.5286,HE,355.4188,0.0463,F,F,F,*1C
$GPHDT,175.381,T*3C
$GPATT,095351.80,PI,0.0839,0.0463,RO,-0.8087,0.5286,HE,355.3809,0.0463,F,F,F,*14
$GPATT,095351.90,PI,0.0857,0.0463,RO,-0.8072,0.5286,HE,355.3535,0.0463,F,F,F,*15
$RDENS,19,3563029,PC
$GPGGA,095352.00,5407.2080368,N,00851.5422646,E,1,23,0.58,8.9155,M,39.7434,M,,*5E
$GPVTG,177.089,T,173.355,M,6.2255,N,11.5296,K,A*1B
$GPZDA,095352.00,26,05,2024,00,00*6B
$GPHDT,175.323,T*34
$GPATT,095352.00,PI,0.1012,0.0463,RO,-0.7809,0.5286,HE,355.3226,0.0463,F,F,F,*19
$GPRMC,095352.00,A,5407.2080368,N,00851.5422646,E,6.2255,177.089,260524,3.734,W,A*15
$GPATT,095352.10,PI,0.0998,0.0463,RO,-0.8350,0.5286,HE,355.2871,0.0463,F,F,F,*13
$GPHDT,175.259,T*38
$GPATT,095352.20,PI,0.1000,0.0463,RO,-0.8251,0.5286,HE,355.2586,0.0463,F,F,F,*1C
$GPATT,095352.30,PI,0.1046,0.0463,RO,-0.8973,0.5286,HE,355.2232,0.0463,F,F,F,*1C
$GPHDT,175.198,T*36
$GPATT,095352.40,PI,0.1034,0.0463,RO,-0.9216,0.5286,HE,355.1981,0.0463,F,F,F,*17
$GPATT,095352.50,PI,0.1068,0.0463,RO,-1.0341,0.5286,HE,355.1621,0.0463,F,F,F,*11
$GPHDT,175.144,T*37
$GPATT,095352.60,PI,0.1149,0.0463,RO,-0.9574,0.5286,HE,355.1439,0.0463,F,F,F,*13
$GPATT,095352.70,PI,0.1137,0.0463,RO,-1.0770,0.5286,HE,355.1106,0.0463,F,F,F,*1C
$GPHDT,175.091,T*3E
$GPATT,095352.80,PI,0.1120,0.0463,RO,-0.9754,0.5286,HE,355.0912,0.0463,F,F,F,*17
$GPATT,095352.90,PI,0.1217,0.0463,RO,-1.0089,0.5286,HE,355.0595,0.0463,F,F,F,*1D
$GPGGA,095353.00,5407.2063035,N,00851.5423645,E,1,23,0.58,8.9169,M,39.7434,M,,*54
$GPVTG,176.672,T,172.938,M,6.2958,N,11.6599,K,A*15
$GPZDA,095353.00,26,05,2024,00,00*6A
$GPHDT,175.025,T*31
$GPATT,095353.00,PI,0.1186,0.0463,RO,-1.0933,0.5286,HE,355.0250,0.0463,F,F,F,*18
$GPRMC,095353.00,A,5407.2063035,N,00851.5423645,E,6.2958,176.672,260524,3.734,W,A*15
$GPATT,095353.10,PI,0.1216,0.0463,RO,-1.0786,0.5286,HE,355.0011,0.0463,F,F,F,*14
$GPHDT,174.973,T*3A
$GPATT,095353.20,PI,0.1254,0.0463,RO,-1.1366,0.5286,HE,354.9727,0.0463,F,F,F,*10
$GPATT,095353.30,PI,0.1223,0.0463,RO,-1.2232,0.5286,HE,354.9423,0.0463,F,F,F,*15
$GPHDT,174.924,T*38
$GPATT,095353.40,PI,0.1225,0.0463,RO,-1.1090,0.5286,HE,354.9241,0.0463,F,F,F,*1F
$RDENS,20,3563176,PC
$GPATT,095353.50,PI,0.1277,0.0463,RO,-1.2080,0.5286,HE,354.8886,0.0463,F,F,F,*1B
$GPHDT,174.871,T*39
$GPATT,095353.60,PI,0.1345,0.0463,RO,-1.1111,0.5286,HE,354.8714,0.0463,F,F,F,*16
$GPATT,095353.70,PI,0.1276,0.0463,RO,-1.1890,0.5286,HE,354.8456,0.0463,F,F,F,*13
$GPHDT,174.826,T*3B
$GPATT,095353.80,PI,0.1330,0.0463,RO,-1.1443,0.5286,HE,354.8260,0.0463,F,F,F,*1E
$GPATT,095353.90,PI,0.1422,0.0463,RO,-1.1114,0.5286,HE,354.8069,0.0463,F,F,F,*17
$GPGGA,095354.00,5407.2045523,N,00851.5425158,E,1,23,0.58,8.8803,M,39.7434,M,,*5C
$GPVTG,176.292,T,172.557,M,6.3306,N,11.7242,K,A*1A
$GPZDA,095354.00,26,05,2024,00,00*6D
$GPHDT,174.785,T*3D
$GPATT,095354.00,PI,0.1450,0.0463,RO,-1.1065,0.5286,HE,354.7855,0.0463,F,F,F,*13
$GPRMC,095354.00,A,5407.2045523,N,00851.5425158,E,6.3306,176.292,260524,3.734,W,A*13
$GPATT,095354.10,PI,0.1397,0.0463,RO,-1.1907,0.5286,HE,354.7626,0.0463,F,F,F,*19
$GPHDT,174.748,T*3C
$GPATT,095354.20,PI,0.1358,0.0463,RO,-1.0684,0.5286,HE,354.7481,0.0463,F,F,F,*13
$GPATT,095354.30,PI,0.1360,0.0463,RO,-1.0391,0.5286,HE,354.7337,0.0463,F,F,F,*12
$GPHDT,174.716,T*37
$GPATT,095354.40,PI,0.1398,0.0463,RO,-1.0172,0.5286,HE,354.7157,0.0463,F,F,F,*19
$GPATT,095354.50,PI,0.1501,0.0463,RO,-1.0294,0.5286,HE,354.6908,0.0463,F,F,F,*16
$GPHDT,174.676,T*30
$GPATT,095354.60,PI,0.1466,0.0463,RO,-1.0001,0.5286,HE,354.6756,0.0463,F,F,F,*1E
$GPATT,095354.70,PI,0.1274,0.0463,RO,-1.0049,0.5286,HE,354.6559,0.0463,F,F,F,*1B
$GPHDT,174.645,T*30
$GPATT,095354.80,PI,0.1298,0.0463,RO,-0.8230,0.5286,HE,354.6447,0.0463,F,F,F,*1D
$GPATT,095354.90,PI,0.1312,0.0463,RO,-0.7112,0.5286,HE,354.6359,0.0463,F,F,F,*1B
$RDENS,21,3563323,PC
$GPGGA,095355.00,5407.2028063,N,00851.5428247,E,1,22,0.60,8.6708,M,39.7434,M,,*57
$GPVTG,175.907,T,172.172,M,6.3856,N,11.8261,K,A*1D
$GPZDA,095355.00,26,05,2024,00,00*6C
$GPHDT,174.618,T*38
$GPATT,095355.00,PI,0.1277,0.0463,RO,-0.7605,0.5286,HE,354.6179,0.0463,F,F,F,*10
$GPRMC,095355.00,A,5407.2028063,N,00851.5428247,E,6.3856,175.907,260524,3.734,W,A*12
$GPATT,095355.10,PI,0.1342,0.0463,RO,-0.8026,0.5286,HE,354.6035,0.0463,F,F,F,*17
$GPHDT,174.598,T*33
$GPATT,095355.20,PI,0.1328,0.0463,RO,-0.6881,0.5286,HE,354.5982,0.0463,F,F,F,*15
$GPATT,095355.30,PI,0.1316,0.0463,RO,-0.6435,0.5286,HE,354.5847,0.0463,F,F,F,*12
$GPHDT,174.569,T*3D
$GPATT,095355.40,PI,0.1327,0.0463,RO,-0.5816,0.5286,HE,354.5690,0.0463,F,F,F,*1D
$GPATT,095355.50,PI,0.1310,0.0463,RO,-0.5712,0.5286,HE,354.5493,0.0463,F,F,F,*12
$GPHDT,174.542,T*34
$GPATT,095355.60,PI,0.1304,0.0463,RO,-0.5183,0.5286,HE,354.5418,0.0463,F,F,F,*19
$GPATT,095355.70,PI,0.1331,0.0463,RO,-0.4614,0.5286,HE,354.5313,0.0463,F,F,F,*1A
$GPHDT,174.515,T*36
$GPATT,095355.80,PI,0.1367,0.0463,RO,-0.5473,0.5286,HE,354.5146,0.0463,F,F,F,*16
$GPATT,095355.90,PI,0.1291,0.0463,RO,-0.3872,0.5286,HE,354.5087,0.0463,F,F,F,*18
$GPGGA,095356.00,5407.2010354,N,00851.5430558,E,1,23,0.58,8.6768,M,39.7434,M,,*54
$GPVTG,176.048,T,172.313,M,6.4217,N,11.8930,K,A*1E
$GPZDA,095356.00,26,05,2024,00,00*6F
$GPHDT,174.497,T*3D
$GPATT,095356.00,PI,0.1255,0.0463,RO,-0.3891,0.5286,HE,354.4967,0.0463,F,F,F,*11
$GPRMC,095356.00,A,5407.2010354,N,00851.5430558,E,6.4217,176.048,260524,3.734,W,A*14
$GPATT,095356.10,PI,0.1071,0.0463,RO,-0.3652,0.5286,HE,354.4803,0.0463,F,F,F,*16
$GPHDT,174.463,T*36
$GPATT,095356.20,PI,0.1122,0.0463,RO,-0.3831,0.5286,HE,354.4629,0.0463,F,F,F,*1F
$GPATT,095356.30,PI,0.1285,0.0463,RO,-0.2843,0.5286,HE,354.4635,0.0463,F,F,F,*19
$GPHDT,174.452,T*34
$RDENS,22,3563470,PC
$GPATT,095356.40,PI,0.1301,0.0463,RO,-0.2384,0.5286,HE,354.4524,0.0463,F,F,F,*10
$GPATT,095356.50,PI,0.1307,0.0463,RO,-0.2502,0.5286,HE,354.4423,0.0463,F,F,F,*19
$GPHDT,174.437,T*37
$GPATT,095356.60,PI,0.1311,0.0463,RO,-0.2052,0.5286,HE,354.4365,0.0463,F,F,F,*18
$GPATT,095356.70,PI,0.1336,0.0463,RO,-0.1742,0.5286,HE,354.4304,0.0463,F,F,F,*1E
$GPHDT,174.416,T*34
$GPATT,095356.80,PI,0.1283,0.0463,RO,-0.2505,0.5286,HE,354.4160,0.0463,F,F,F,*1C
$GPATT,095356.90,PI,0.1351,0.0463,RO,-0.3153,0.5286,HE,354.4029,0.0463,F,F,F,*19
$GPGGA,095357.00,5407.1992765,N,00851.5433445,E,1,23,0.58,8.8148,M,39.7434,M,,*57
$GPVTG,176.586,T,172.852,M,6.4689,N,11.9804,K,A*13
$GPZDA,095357.00,26,05,2024,00,00*6E
$GPHDT,174.414,T*36
$GPATT,095357.00,PI,0.1345,0.0463,RO,-0.0403,0.5286,HE,354.4137,0.0463,F,F,F,*19
$GPRMC,095357.00,A,5407.1992765,N,00851.5433445,E,6.4689,176.586,260524,3.734,W,A*19
$GPATT,095357.10,PI,0.1355,0.0463,RO,-0.2085,0.5286,HE,354.3999,0.0463,F,F,F,*1A
$GPHDT,174.399,T*34
$GPATT,095357.20,PI,0.1366,0.0463,RO,-0.1740,0.5286,HE,354.3987,0.0463,F,F,F,*1B
$GPATT,095357.30,PI,0.1407,0.0463,RO,-0.2186,0.5286,HE,354.3925,0.0463,F,F,F,*1D
$GPHDT,174.386,T*3A
$GPATT,095357.40,PI,0.1408,0.0463,RO,-0.2122,0.5286,HE,354.3862,0.0463,F,F,F,*19
$GPATT,095357.50,PI,0.1385,0.0463,RO,-0.2495,0.5286,HE,354.3832,0.0463,F,F,F,*16
$GPHDT,174.372,T*31
$GPATT,095357.60,PI,0.1366,0.0463,RO,-0.3582,0.5286,HE,354.3717,0.0463,F,F,F,*16
$GPATT,095357.70,PI,0.1409,0.0463,RO,-0.3605,0.5286,HE,354.3653,0.0463,F,F,F,*14
$GPHDT,174.369,T*3B
$GPATT,095357.80,PI,0.1428,0.0463,RO,-0.2623,0.5286,HE,354.3689,0.0463,F,F,F,*1A
$RDENS,23,3563616,PC
$GPATT,095357.90,PI,0.1454,0.0463,RO,-0.3645,0.5286,HE,354.3620,0.0463,F,F,F,*12
$GPGGA,095358.00,5407.1974752,N,00851.5435193,E,1,23,0.58,8.8046,M,39.7434,M,,*53
$GPVTG,176.725,T,172.991,M,6.4957,N,12.0301,K,A*1E
$GPZDA,095358.00,26,05,2024,00,00*61
$GPHDT,174.357,T*36
$GPATT,095358.00,PI,0.1422,0.0463,RO,-0.3306,0.5286,HE,354.3572,0.0463,F,F,F,*13
$GPRMC,095358.00,A,5407.1974752,N,00851.5435193,E,6.4957,176.725,260524,3.734,W,A*15
$GPATT,095358.10,PI,0.1389,0.0463,RO,-0.4334,0.5286,HE,354.3553,0.0463,F,F,F,*11
$GPHDT,174.351,T*30
$GPATT,095358.20,PI,0.1447,0.0463,RO,-0.3439,0.5286,HE,354.3505,0.0463,F,F,F,*19
$GPATT,095358.30,PI,0.1403,0.0463,RO,-0.4562,0.5286,HE,354.3467,0.0463,F,F,F,*15
$GPHDT,174.349,T*39
$GPATT,095358.40,PI,0.1379,0.0463,RO,-0.4995,0.5286,HE,354.3490,0.0463,F,F,F,*14
$GPATT,095358.50,PI,0.1484,0.0463,RO,-0.4343,0.5286,HE,354.3410,0.0463,F,F,F,*19
$GPHDT,174.338,T*3F
$GPATT,095358.60,PI,0.1326,0.0463,RO,-0.5356,0.5286,HE,354.3385,0.0463,F,F,F,*1B
$GPATT,095358.70,PI,0.1387,0.0463,RO,-0.6269,0.5286,HE,354.3341,0.0463,F,F,F,*17
$GPHDT,174.340,T*30
$GPATT,095358.80,PI,0.1458,0.0463,RO,-0.5263,0.5286,HE,354.3396,0.0463,F,F,F,*1E
$GPATT,095358.90,PI,0.1426,0.0463,RO,-0.6278,0.5286,HE,354.3416,0.0463,F,F,F,*10
$GPGGA,095359.00,5407.1956557,N,00851.5436859,E,1,22,0.60,8.7842,M,39.7433,M,,*57
$GPVTG,176.685,T,172.950,M,6.5830,N,12.1917,K,A*15
$GPZDA,095359.00,26,05,2024,00,00*60
$GPHDT,174.337,T*30
$GPATT,095359.00,PI,0.1359,0.0463,RO,-0.7041,0.5286,HE,354.3366,0.0463,F,F,F,*1E
$GPRMC,095359.00,A,5407.1956557,N,00851.5436859,E,6.5830,176.685,260524,3.734,W,A*15
$GPATT,095359.10,PI,0.1443,0.0463,RO,-0.6092,0.5286,HE,354.3416,0.0463,F,F,F,*1C
$GPHDT,174.348,T*38
$GPATT,095359.20,PI,0.1431,0.0463,RO,-0.5670,0.5286,HE,354.3477,0.0463,F,F,F,*14
$GPATT,095359.30,PI,0.1428,0.0463,RO,-0.6716,0.5286,HE,354.3452,0.0463,F,F,F,*18
$RDENS,24,3563763,PC
$GPHDT,174.336,T*31
$GPATT,095359.40,PI,0.1240,0.0463,RO,-0.7419,0.5286,HE,354.3364,0.0463,F,F,F,*18
$GPATT,095359.50,PI,0.1300,0.0463,RO,-0.6623,0.5286,HE,354.3491,0.0463,F,F,F,*1B
$GPHDT,174.347,T*37
$GPATT,095359.60,PI,0.1376,0.0463,RO,-0.7603,0.5286,HE,354.3466,0.0463,F,F,F,*12
$GPATT,095359.70,PI,0.1342,0.0463,RO,-0.7156,0.5286,HE,354.3471,0.0463,F,F,F,*15
$GPHDT,174.351,T*30
$GPATT,095359.80,PI,0.1449,0.0463,RO,-0.7573,0.5286,HE,354.3513,0.0463,F,F,F,*10
$GPATT,095359.90,PI,0.1445,0.0463,RO,-0.6779,0.5286,HE,354.3637,0.0463,F,F,F,*11
$GPGGA,095400.00,5407.1938358,N,00851.5438900,E,1,23,0.58,8.8225,M,39.7433,M,,*50
$GPVTG,176.331,T,172.596,M,6.6065,N,12.2352,K,A*1A
$GPZDA,095400.00,26,05,2024,00,00*6B
$GPHDT,174.364,T*36
$GPATT,095400.00,PI,0.1274,0.0463,RO,-0.6597,0.5286,HE,354.3641,0.0463,F,F,F,*14
$GPRMC,095400.00,A,5407.1938358,N,00851.5438900,E,6.6065,176.331,260524,3.734,W,A*1D
$GPATT,095400.10,PI,0.1479,0.0463,RO,-0.6082,0.5286,HE,354.3763,0.0463,F,F,F,*1E
$GPHDT,174.379,T*3A
$GPATT,095400.20,PI,0.1476,0.0463,RO,-0.6298,0.5286,HE,354.3793,0.0463,F,F,F,*14
$GPATT,095400.30,PI,0.1449,0.0463,RO,-0.6603,0.5286,HE,354.3830,0.0463,F,F,F,*19
$GPHDT,174.385,T*39
$GPATT,095400.40,PI,0.1517,0.0463,RO,-0.5664,0.5286,HE,354.3847,0.0463,F,F,F,*16
$GPATT,095400.50,PI,0.1372,0.0463,RO,-0.5270,0.5286,HE,354.3898,0.0463,F,F,F,*11
$GPHDT,174.396,T*3B
$GPATT,095400.60,PI,0.1345,0.0463,RO,-0.4931,0.5286,HE,354.3962,0.0463,F,F,F,*1D
$GPATT,095400.70,PI,0.1382,0.0463,RO,-0.5530,0.5286,HE,354.3944,0.0463,F,F,F,*1F
$GPHDT,174.399,T*34
$RDENS,25,3563909,PC
$GPATT,095400.80,PI,0.1393,0.0463,RO,-0.5057,0.5286,HE,354.3990,0.0463,F,F,F,*1D
$GPATT,095400.90,PI,0.1367,0.0463,RO,-0.5414,0.5286,HE,354.4072,0.0463,F,F,F,*16
$GPGGA,095401.00,5407.1919842,N,00851.5441062,E,1,22,0.59,8.8475,M,39.7433,M,,*52
$GPVTG,176.060,T,172.326,M,6.6439,N,12.3046,K,A*1A
$GPZDA,095401.00,26,05,2024,00,00*6A
$GPHDT,174.413,T*31
$GPATT,095401.00,PI,0.1284,0.0463,RO,-0.4790,0.5286,HE,354.4125,0.0463,F,F,F,*1F
$GPRMC,095401.00,A,5407.1919842,N,00851.5441062,E,6.6439,176.060,260524,3.734,W,A*16
$GPATT,095401.10,PI,0.1385,0.0463,RO,-0.4198,0.5286,HE,354.4222,0.0463,F,F,F,*14
$GPHDT,174.415,T*37
$GPATT,095401.20,PI,0.1449,0.0463,RO,-0.4711,0.5286,HE,354.4154,0.0463,F,F,F,*15
$GPATT,095401.30,PI,0.1385,0.0463,RO,-0.4490,0.5286,HE,354.4204,0.0463,F,F,F,*1F
$GPHDT,174.425,T*34
$GPATT,095401.40,PI,0.1409,0.0463,RO,-0.4414,0.5286,HE,354.4254,0.0463,F,F,F,*12
$GPATT,095401.50,PI,0.1426,0.0463,RO,-0.3720,0.5286,HE,354.4313,0.0463,F,F,F,*1F
$GPHDT,174.436,T*36
$GPATT,095401.60,PI,0.1405,0.0463,RO,-0.2923,0.5286,HE,354.4363,0.0463,F,F,F,*16
$GPATT,095401.70,PI,0.1586,0.0463,RO,-0.2461,0.5286,HE,354.4427,0.0463,F,F,F,*11
$GPHDT,174.443,T*34
$GPATT,095401.80,PI,0.1416,0.0463,RO,-0.3250,0.5286,HE,354.4428,0.0463,F,F,F,*1C
$GPATT,095401.90,PI,0.1524,0.0463,RO,-0.3008,0.5286,HE,354.4447,0.0463,F,F,F,*1B
$GPGGA,095402.00,5407.1901468,N,00851.5443067,E,1,22,0.60,8.8045,M,39.7433,M,,*56
$GPVTG,176.138,T,172.404,M,6.6897,N,12.3892,K,A*18
$GPZDA,095402.00,26,05,2024,00,00*69
$GPHDT,174.449,T*3E
$GPATT,095402.00,PI,0.1538,0.0463,RO,-0.2158,0.5286,HE,354.4489,0.0463,F,F,F,*1B
$GPRMC,095402.00,A,5407.1901468,N,00851.5443067,E,6.6897,176.138,260524,3.734,W,A*1B
$GPATT,095402.10,PI,0.1521,0.0463,RO,-0.1284,0.5286,HE,354.4580,0.0463,F,F,F,*1B
$GPHDT,174.453,T*35
$GPATT,095402.20,PI,0.1516,0.0463,RO,-0.2210,0.5286,HE,354.4534,0.0463,F,F,F,*1D
$RDENS,26,3564056,PC
$GPATT,095402.30,PI,0.1595,0.0463,RO,-0.1818,0.5286,HE,354.4568,0.0463,F,F,F,*1F
$GPHDT,174.455,T*33
$GPATT,095402.40,PI,0.1454,0.0463,RO,-0.1290,0.5286,HE,354.4550,0.0463,F,F,F,*15
$GPATT,095402.50,PI,0.1444,0.0463,RO,-0.1385,0.5286,HE,354.4585,0.0463,F,F,F,*18
$GPHDT,174.462,T*37
$GPATT,095402.60,PI,0.1460,0.0463,RO,-0.2440,0.5286,HE,354.4618,0.0463,F,F,F,*17
$GPATT,095402.70,PI,0.1340,0.0463,RO,-0.1375,0.5286,HE,354.4642,0.0463,F,F,F,*1E
$GPHDT,174.461,T*34
$GPATT,095402.80,PI,0.1394,0.0463,RO,-0.1111,0.5286,HE,354.4614,0.0463,F,F,F,*1B
$GPATT,095402.90,PI,0.1363,0.0463,RO,-0.1994,0.5286,HE,354.4664,0.0463,F,F,F,*10
$GPGGA,095403.00,5407.1882958,N,00851.5445529,E,1,23,0.58,8.8405,M,39.7433,M,,*50
$GPVTG,176.425,T,172.691,M,6.7249,N,12.4545,K,A*17
$GPZDA,095403.00,26,05,2024,00,00*68
$GPHDT,174.476,T*32
$GPATT,095403.00,PI,0.1445,0.0463,RO,-0.1459,0.5286,HE,354.4755,0.0463,F,F,F,*14
$GPRMC,095403.00,A,5407.1882958,N,00851.5445529,E,6.7249,176.425,260524,3.734,W,A*16
$GPATT,095403.10,PI,0.1396,0.0463,RO,-0.1370,0.5286,HE,354.4777,0.0463,F,F,F,*10
$GPHDT,174.476,T*32
$GPATT,095403.20,PI,0.1459,0.0463,RO,-0.2138,0.5286,HE,354.4758,0.0463,F,F,F,*17
$GPATT,095403.30,PI,0.1325,0.0463,RO,-0.3178,0.5286,HE,354.4760,0.0463,F,F,F,*14
$GPHDT,174.474,T*30
$GPATT,095403.40,PI,0.1431,0.0463,RO,-0.2586,0.5286,HE,354.4744,0.0463,F,F,F,*13
$GPATT,095403.50,PI,0.1554,0.0463,RO,-0.1969,0.5286,HE,354.4831,0.0463,F,F,F,*13
$GPHDT,174.484,T*3F
$GPATT,095403.60,PI,0.1417,0.0463,RO,-0.2877,0.5286,HE,354.4840,0.0463,F,F,F,*1D
$GPATT,095403.70,PI,0.1431,0.0463,RO,-0.2336,0.5286,HE,354.4937,0.0463,F,F,F,*17
$RDENS,27,3564204,PC
$GPHDT,174.490,T*3A
$GPATT,095403.80,PI,0.1293,0.0463,RO,-0.3586,0.5286,HE,354.4897,0.0463,F,F,F,*11
$GPATT,095403.90,PI,0.1336,0.0463,RO,-0.2850,0.5286,HE,354.4909,0.0463,F,F,F,*1F
$GPGGA,095404.00,5407.1864223,N,00851.5447554,E,1,23,0.58,8.8443,M,39.7433,M,,*52
$GPVTG,176.291,T,172.556,M,6.7733,N,12.5442,K,A*19
$GPZDA,095404.00,26,05,2024,00,00*6F
$GPHDT,174.491,T*3B
$GPATT,095404.00,PI,0.1276,0.0463,RO,-0.3450,0.5286,HE,354.4913,0.0463,F,F,F,*12
$GPRMC,095404.00,A,5407.1864223,N,00851.5447554,E,6.7733,176.291,260524,3.734,W,A*17
$GPATT,095404.10,PI,0.1361,0.0463,RO,-0.3697,0.5286,HE,354.4983,0.0463,F,F,F,*14
$GPHDT,174.499,T*33
$GPATT,095404.20,PI,0.1333,0.0463,RO,-0.2970,0.5286,HE,354.4992,0.0463,F,F,F,*17
$GPATT,095404.30,PI,0.1323,0.0463,RO,-0.4648,0.5286,HE,354.4981,0.0463,F,F,F,*17
$GPHDT,174.493,T*39
$GPATT,095404.40,PI,0.1432,0.0463,RO,-0.4834,0.5286,HE,354.4932,0.0463,F,F,F,*1A
$GPATT,095404.50,PI,0.1402,0.0463,RO,-0.4342,0.5286,HE,354.4924,0.0463,F,F,F,*15
$GPHDT,174.495,T*3F
$GPATT,095404.60,PI,0.1501,0.0463,RO,-0.4858,0.5286,HE,354.4954,0.0463,F,F,F,*13
$GPATT,095404.70,PI,0.1359,0.0463,RO,-0.5942,0.5286,HE,354.4962,0.0463,F,F,F,*17
$GPHDT,174.494,T*3E
$GPATT,095404.80,PI,0.1387,0.0463,RO,-0.4517,0.5286,HE,354.4940,0.0463,F,F,F,*16
$GPATT,095404.90,PI,0.1534,0.0463,RO,-0.5339,0.5286,HE,354.5004,0.0463,F,F,F,*1A
$GPGGA,095405.00,5407.1845403,N,00851.5449602,E,1,23,0.58,8.8269,M,39.7433,M,,*54
$GPVTG,176.089,T,172.354,M,6.7939,N,12.5822,K,A*18
$GPZDA,095405.00,26,05,2024,00,00*6E
$GPHDT,174.500,T*32
$GPATT,095405.00,PI,0.1507,0.0463,RO,-0.4585,0.5286,HE,354.5000,0.0463,F,F,F,*16
$GPRMC,095405.00,A,5407.1845403,N,00851.5449602,E,6.7939,176.089,260524,3.734,W,A*10
$GPATT,095405.10,PI,0.1605,0.0463,RO,-0.5126,0.5286,HE,354.5050,0.0463,F,F,F,*1F
$RDENS,28,3564349,PC
$GPHDT,174.503,T*31
$GPATT,095405.20,PI,0.1581,0.0463,RO,-0.5227,0.5286,HE,354.5034,0.0463,F,F,F,*13
$GPATT,095405.30,PI,0.1602,0.0463,RO,-0.5802,0.5286,HE,354.4959,0.0463,F,F,F,*14
$GPHDT,174.503,T*31
$GPATT,095405.40,PI,0.1632,0.0463,RO,-0.4916,0.5286,HE,354.5032,0.0463,F,F,F,*10
$GPATT,095405.50,PI,0.1647,0.0463,RO,-0.6213,0.5286,HE,354.4877,0.0463,F,F,F,*17
$GPHDT,174.495,T*3F
$GPATT,095405.60,PI,0.1556,0.0463,RO,-0.5007,0.5286,HE,354.4947,0.0463,F,F,F,*11
$GPATT,095405.70,PI,0.1591,0.0463,RO,-0.6052,0.5286,HE,354.4924,0.0463,F,F,F,*1D
$GPHDT,174.499,T*33
$GPATT,095405.80,PI,0.1702,0.0463,RO,-0.4943,0.5286,HE,354.4995,0.0463,F,F,F,*1B
$GPATT,095405.90,PI,0.1554,0.0463,RO,-0.5166,0.5286,HE,354.4947,0.0463,F,F,F,*1A
$GPGGA,095406.00,5407.1826479,N,00851.5451944,E,1,23,0.58,8.8119,M,39.7432,M,,*5E
$GPVTG,175.574,T,171.840,M,6.8521,N,12.6900,K,A*19
$GPZDA,095406.00,26,05,2024,00,00*6D
$GPHDT,174.500,T*32
$GPATT,095406.00,PI,0.1523,0.0463,RO,-0.4717,0.5286,HE,354.5001,0.0463,F,F,F,*1B
$GPRMC,095406.00,A,5407.1826479,N,00851.5451944,E,6.8521,175.574,260524,3.734,W,A*11
$GPATT,095406.10,PI,0.1596,0.0463,RO,-0.5022,0.5286,HE,354.4920,0.0463,F,F,F,*1F
$GPHDT,174.496,T*3C
$GPATT,095406.20,PI,0.1536,0.0463,RO,-0.4843,0.5286,HE,354.4960,0.0463,F,F,F,*1C
$GPATT,095406.30,PI,0.1494,0.0463,RO,-0.4785,0.5286,HE,354.4935,0.0463,F,F,F,*11
$GPHDT,174.494,T*3E
$GPATT,095406.40,PI,0.1509,0.0463,RO,-0.4000,0.5286,HE,354.4944,0.0463,F,F,F,*1F
$GPATT,095406.50,PI,0.1601,0.0463,RO,-0.4107,0.5286,HE,354.4894,0.0463,F,F,F,*1F
$GPHDT,174.490,T*3A
$GPATT,095406.60,PI,0.1658,0.0463,RO,-0.4221,0.5286,HE,354.4896,0.0463,F,F,F,*15
$RDENS,29,3564497,PC
$GPATT,095406.70,PI,0.1659,0.0463,RO,-0.3743,0.5286,HE,354.4963,0.0463,F,F,F,*18
$GPHDT,174.490,T*3A
$GPATT,095406.80,PI,0.1678,0.0463,RO,-0.4081,0.5286,HE,354.4896,0.0463,F,F,F,*11
$GPATT,095406.90,PI,0.1678,0.0463,RO,-0.3679,0.5286,HE,354.4987,0.0463,F,F,F,*17
$GPGGA,095407.00,5407.1807556,N,00851.5454622,E,1,23,0.58,8.8213,M,39.7432,M,,*53
$GPVTG,175.575,T,171.841,M,6.8650,N,12.7139,K,A*1F
$GPZDA,095407.00,26,05,2024,00,00*6C
$GPHDT,174.498,T*32
$GPATT,095407.00,PI,0.1736,0.0463,RO,-0.3793,0.5286,HE,354.4977,0.0463,F,F,F,*1E
$GPRMC,095407.00,A,5407.1807556,N,00851.5454622,E,6.8650,175.575,260524,3.734,W,A*11
$GPATT,095407.10,PI,0.1763,0.0463,RO,-0.2805,0.5286,HE,354.4993,0.0463,F,F,F,*14
$GPHDT,174.496,T*3C
$GPATT,095407.20,PI,0.1574,0.0463,RO,-0.3298,0.5286,HE,354.4965,0.0463,F,F,F,*15
$GPATT,095407.30,PI,0.1644,0.0463,RO,-0.2823,0.5286,HE,354.4968,0.0463,F,F,F,*12
$GPHDT,174.506,T*34
$GPATT,095407.40,PI,0.1779,0.0463,RO,-0.2289,0.5286,HE,354.5061,0.0463,F,F,F,*11
$GPATT,095407.50,PI,0.1740,0.0463,RO,-0.2883,0.5286,HE,354.4925,0.0463,F,F,F,*12
$GPHDT,174.493,T*39
$GPATT,095407.60,PI,0.1695,0.0463,RO,-0.3163,0.5286,HE,354.4929,0.0463,F,F,F,*12
$GPATT,095407.70,PI,0.1644,0.0463,RO,-0.1547,0.5286,HE,354.4981,0.0463,F,F,F,*1D
$GPHDT,174.495,T*3F
$GPATT,095407.80,PI,0.1631,0.0463,RO,-0.1922,0.5286,HE,354.4952,0.0463,F,F,F,*11
$GPATT,095407.90,PI,0.1704,0.0463,RO,-0.2064,0.5286,HE,354.4975,0.0463,F,F,F,*1A
$GPGGA,095408.00,5407.1788441,N,00851.5457073,E,1,23,0.58,8.8144,M,39.7432,M,,*53
$GPVTG,175.806,T,172.071,M,6.9107,N,12.7986,K,A*16
$GPZDA,095408.00,26,05,2024,00,00*63
$GPHDT,174.497,T*3D
$GPATT,095408.00,PI,0.1648,0.0463,RO,-0.2075,0.5286,HE,354.4970,0.0463,F,F,F,*10
$RDENS,30,3564643,PC
$GPRMC,095408.00,A,5407.1788441,N,00851.5457073,E,6.9107,175.806,260524,3.734,W,A*1D
$GPATT,095408.10,PI,0.1694,0.0463,RO,-0.2627,0.5286,HE,354.4983,0.0463,F,F,F,*1D
$GPHDT,174.499,T*33
$GPATT,095408.20,PI,0.1630,0.0463,RO,-0.2307,0.5286,HE,354.4987,0.0463,F,F,F,*13
$GPATT,095408.30,PI,0.1606,0.0463,RO,-0.2480,0.5286,HE,354.5014,0.0463,F,F,F,*1D
$GPHDT,174.498,T*32
$GPATT,095408.40,PI,0.1665,0.0463,RO,-0.2975,0.5286,HE,354.4985,0.0463,F,F,F,*18
$GPATT,095408.50,PI,0.1625,0.0463,RO,-0.3644,0.5286,HE,354.4995,0.0463,F,F,F,*10
$GPHDT,174.508,T*3A
$GPATT,095408.60,PI,0.1689,0.0463,RO,-0.2817,0.5286,HE,354.5083,0.0463,F,F,F,*13
$GPATT,095408.70,PI,0.1658,0.0463,RO,-0.3060,0.5286,HE,354.5129,0.0463,F,F,F,*16
$GPHDT,174.513,T*30
$GPATT,095408.80,PI,0.1567,0.0463,RO,-0.3127,0.5286,HE,354.5131,0.0463,F,F,F,*1D
$GPATT,095408.90,PI,0.1723,0.0463,RO,-0.2875,0.5286,HE,354.5228,0.0463,F,F,F,*1A
$GPGGA,095409.00,5407.1769211,N,00851.5459343,E,1,22,0.60,8.8028,M,39.7432,M,,*51
$GPVTG,176.112,T,172.377,M,6.9639,N,12.8971,K,A*11
$GPZDA,095409.00,26,05,2024,00,00*62
$GPHDT,174.518,T*3B
$GPATT,095409.00,PI,0.1647,0.0463,RO,-0.3624,0.5286,HE,354.5177,0.0463,F,F,F,*13
$GPRMC,095409.00,A,5407.1769211,N,00851.5459343,E,6.9639,176.112,260524,3.734,W,A*1B
$GPATT,095409.10,PI,0.1654,0.0463,RO,-0.2814,0.5286,HE,354.5210,0.0463,F,F,F,*1E
$GPHDT,174.527,T*37
$GPATT,095409.20,PI,0.1636,0.0463,RO,-0.3984,0.5286,HE,354.5273,0.0463,F,F,F,*15
$GPATT,095409.30,PI,0.1704,0.0463,RO,-0.3959,0.5286,HE,354.5311,0.0463,F,F,F,*11
$GPHDT,174.544,T*32
$GPATT,095409.40,PI,0.1741,0.0463,RO,-0.3629,0.5286,HE,354.5441,0.0463,F,F,F,*1D
$GPATT,095409.50,PI,0.1736,0.0463,RO,-0.4134,0.5286,HE,354.5383,0.0463,F,F,F,*19
$RDENS,31,3564789,PC
$GPHDT,174.543,T*35
$GPATT,095409.60,PI,0.1789,0.0463,RO,-0.4316,0.5286,HE,354.5429,0.0463,F,F,F,*1B
$GPATT,095409.70,PI,0.1807,0.0463,RO,-0.4567,0.5286,HE,354.5531,0.0463,F,F,F,*1B
$GPHDT,174.558,T*3F
$GPATT,095409.80,PI,0.1686,0.0463,RO,-0.4958,0.5286,HE,354.5581,0.0463,F,F,F,*18
$GPATT,095409.90,PI,0.1772,0.0463,RO,-0.6031,0.5286,HE,354.5653,0.0463,F,F,F,*1B
$GPGGA,095410.00,5407.1749969,N,00851.5461762,E,1,23,0.58,8.8314,M,39.7432,M,,*55
$GPVTG,176.272,T,172.538,M,6.9849,N,12.9359,K,A*11
$GPZDA,095410.00,26,05,2024,00,00*6A
$GPHDT,174.577,T*32
$GPATT,095410.00,PI,0.1828,0.0463,RO,-0.4890,0.5286,HE,354.5774,0.0463,F,F,F,*1F
$GPRMC,095410.00,A,5407.1749969,N,00851.5461762,E,6.9849,176.272,260524,3.734,W,A*15
$GPATT,095410.10,PI,0.1779,0.0463,RO,-0.6138,0.5286,HE,354.5877,0.0463,F,F,F,*10
$GPHDT,174.594,T*3F
$GPATT,095410.20,PI,0.1760,0.0463,RO,-0.6248,0.5286,HE,354.5937,0.0463,F,F,F,*1A
$GPATT,095410.30,PI,0.1799,0.0463,RO,-0.5980,0.5286,HE,354.6025,0.0463,F,F,F,*18
$GPHDT,174.612,T*32
$GPATT,095410.40,PI,0.1755,0.0463,RO,-0.6302,0.5286,HE,354.6121,0.0463,F,F,F,*19
$GPATT,095410.50,PI,0.1717,0.0463,RO,-0.6034,0.5286,HE,354.6207,0.0463,F,F,F,*1F
$GPHDT,174.624,T*37
$GPATT,095410.60,PI,0.1748,0.0463,RO,-0.6617,0.5286,HE,354.6244,0.0463,F,F,F,*16
$GPATT,095410.70,PI,0.1849,0.0463,RO,-0.6993,0.5286,HE,354.6396,0.0463,F,F,F,*14
$GPHDT,174.654,T*30
$GPATT,095410.80,PI,0.1795,0.0463,RO,-0.7378,0.5286,HE,354.6540,0.0463,F,F,F,*16
$GPATT,095410.90,PI,0.1843,0.0463,RO,-0.6197,0.5286,HE,354.6681,0.0463,F,F,F,*1F
$GPGGA,095411.00,5407.1730510,N,00851.5463935,E,1,22,0.59,8.8190,M,39.7432,M,,*58
$GPVTG,176.256,T,172.522,M,7.0148,N,12.9915,K,A*1E
$GPZDA,095411.00,26,05,2024,00,00*6B
$RDENS,32,3564935,PC
$GPHDT,174.676,T*30
$GPATT,095411.00,PI,0.1795,0.0463,RO,-0.7111,0.5286,HE,354.6760,0.0463,F,F,F,*12
$GPRMC,095411.00,A,5407.1730510,N,00851.5463935,E,7.0148,176.256,260524,3.734,W,A*10
$GPATT,095411.10,PI,0.1797,0.0463,RO,-0.7686,0.5286,HE,354.6897,0.0463,F,F,F,*1F
$GPHDT,174.711,T*30
$GPATT,095411.20,PI,0.1743,0.0463,RO,-0.5746,0.5286,HE,354.7107,0.0463,F,F,F,*1B
$GPATT,095411.30,PI,0.1760,0.0463,RO,-0.6461,0.5286,HE,354.7183,0.0463,F,F,F,*12
$GPHDT,174.732,T*31
$GPATT,095411.40,PI,0.1720,0.0463,RO,-0.6385,0.5286,HE,354.7319,0.0463,F,F,F,*1D
$GPATT,095411.50,PI,0.1792,0.0463,RO,-0.6177,0.5286,HE,354.7526,0.0463,F,F,F,*10
$GPHDT,174.765,T*33
$GPATT,095411.60,PI,0.1763,0.0463,RO,-0.5836,0.5286,HE,354.7655,0.0463,F,F,F,*15
$GPATT,095411.70,PI,0.1799,0.0463,RO,-0.6252,0.5286,HE,354.7824,0.0463,F,F,F,*12
$GPHDT,174.797,T*3E
$GPATT,095411.80,PI,0.1746,0.0463,RO,-0.6175,0.5286,HE,354.7970,0.0463,F,F,F,*19
$GPATT,095411.90,PI,0.1746,0.0463,RO,-0.6522,0.5286,HE,354.8140,0.0463,F,F,F,*1A
$GPGGA,095412.00,5407.1711059,N,00851.5466118,E,1,22,0.60,8.8212,M,39.7431,M,,*52
$GPVTG,176.138,T,172.403,M,7.0464,N,13.0500,K,A*1C
$GPZDA,095412.00,26,05,2024,00,00*68
$GPHDT,174.834,T*38
$GPATT,095412.00,PI,0.1749,0.0463,RO,-0.5802,0.5286,HE,354.8343,0.0463,F,F,F,*12
$GPRMC,095412.00,A,5407.1711059,N,00851.5466118,E,7.0464,176.138,260524,3.734,W,A*1A
$GPATT,095412.10,PI,0.1798,0.0463,RO,-0.5756,0.5286,HE,354.8526,0.0463,F,F,F,*14
$GPHDT,174.873,T*3B
$GPATT,095412.20,PI,0.1806,0.0463,RO,-0.5333,0.5286,HE,354.8725,0.0463,F,F,F,*19
$GPATT,095412.30,PI,0.1866,0.0463,RO,-0.5149,0.5286,HE,354.8952,0.0463,F,F,F,*1F
$GPHDT,174.906,T*38
$GPATT,095412.40,PI,0.1798,0.0463,RO,-0.5148,0.5286,HE,354.9060,0.0463,F,F,F,*1E
$GPATT,095412.50,PI,0.1667,0.0463,RO,-0.4325,0.5286,HE,354.9257,0.0463,F,F,F,*10
$RDENS,33,3565081,PC
$GPHDT,174.940,T*3A
$GPATT,095412.60,PI,0.1844,0.0463,RO,-0.4911,0.5286,HE,354.9399,0.0463,F,F,F,*12
$GPATT,095412.70,PI,0.1705,0.0463,RO,-0.4548,0.5286,HE,354.9579,0.0463,F,F,F,*11
$GPHDT,174.979,T*30
$GPATT,095412.80,PI,0.1823,0.0463,RO,-0.5147,0.5286,HE,354.9790,0.0463,F,F,F,*1A
$GPATT,095412.90,PI,0.1769,0.0463,RO,-0.4334,0.5286,HE,355.0043,0.0463,F,F,F,*1C
$GPGGA,095413.00,5407.1691498,N,00851.5468432,E,1,23,0.58,8.8249,M,39.7431,M,,*54
$GPVTG,176.334,T,172.600,M,7.0756,N,13.1041,K,A*10
$GPZDA,095413.00,26,05,2024,00,00*69
$GPHDT,175.019,T*3E
$GPATT,095413.00,PI,0.1696,0.0463,RO,-0.4369,0.5286,HE,355.0193,0.0463,F,F,F,*11
$GPRMC,095413.00,A,5407.1691498,N,00851.5468432,E,7.0756,176.334,260524,3.734,W,A*14
$GPATT,095413.10,PI,0.1705,0.0463,RO,-0.4097,0.5286,HE,355.0366,0.0463,F,F,F,*11
$GPHDT,175.058,T*3B
$GPATT,095413.20,PI,0.1726,0.0463,RO,-0.4142,0.5286,HE,355.0576,0.0463,F,F,F,*1D
$GPATT,095413.30,PI,0.1642,0.0463,RO,-0.4680,0.5286,HE,355.0813,0.0463,F,F,F,*18
$GPHDT,175.102,T*35
$GPATT,095413.40,PI,0.1666,0.0463,RO,-0.3462,0.5286,HE,355.1019,0.0463,F,F,F,*13
$GPATT,095413.50,PI,0.1634,0.0463,RO,-0.4454,0.5286,HE,355.1149,0.0463,F,F,F,*13
$GPHDT,175.136,T*32
$GPATT,095413.60,PI,0.1679,0.0463,RO,-0.3631,0.5286,HE,355.1359,0.0463,F,F,F,*1C
$GPATT,095413.70,PI,0.1716,0.0463,RO,-0.3024,0.5286,HE,355.1560,0.0463,F,F,F,*1B
$GPHDT,175.180,T*3F
$GPATT,095413.80,PI,0.1743,0.0463,RO,-0.3759,0.5286,HE,355.1800,0.0463,F,F,F,*12
$GPATT,095413.90,PI,0.1702,0.0463,RO,-0.3367,0.5286,HE,355.2007,0.0463,F,F,F,*13
$RDENS,34,3565227,PC
$GPGGA,095414.00,5407.1671807,N,00851.5470472,E,1,23,0.58,8.8131,M,39.7431,M,,*56
$GPVTG,176.788,T,173.054,M,7.1220,N,13.1900,K,A*1C
$GPZDA,095414.00,26,05,2024,00,00*6E
$GPHDT,175.224,T*32
$GPATT,095414.00,PI,0.1743,0.0463,RO,-0.3134,0.5286,HE,355.2242,0.0463,F,F,F,*1F
$GPRMC,095414.00,A,5407.1671807,N,00851.5470472,E,7.1220,176.788,260524,3.734,W,A*1C
$GPATT,095414.10,PI,0.1791,0.0463,RO,-0.3608,0.5286,HE,355.2466,0.0463,F,F,F,*19
$GPHDT,175.273,T*30
$GPATT,095414.20,PI,0.1815,0.0463,RO,-0.3812,0.5286,HE,355.2728,0.0463,F,F,F,*15
$GPATT,095414.30,PI,0.1615,0.0463,RO,-0.4102,0.5286,HE,355.2895,0.0463,F,F,F,*1C
$GPHDT,175.316,T*32
$GPATT,095414.40,PI,0.1638,0.0463,RO,-0.3223,0.5286,HE,355.3159,0.0463,F,F,F,*1B
$GPATT,095414.50,PI,0.1693,0.0463,RO,-0.3051,0.5286,HE,355.3336,0.0463,F,F,F,*17
$GPHDT,175.360,T*33
$GPATT,095414.60,PI,0.1641,0.0463,RO,-0.3182,0.5286,HE,355.3600,0.0463,F,F,F,*14
$GPATT,095414.70,PI,0.1643,0.0463,RO,-0.4494,0.5286,HE,355.3763,0.0463,F,F,F,*16
$GPHDT,175.400,T*32
$GPATT,095414.80,PI,0.1605,0.0463,RO,-0.2869,0.5286,HE,355.3998,0.0463,F,F,F,*19
$GPATT,095414.90,PI,0.1774,0.0463,RO,-0.3836,0.5286,HE,355.4197,0.0463,F,F,F,*14
$GPGGA,095415.00,5407.1652036,N,00851.5472287,E,1,23,0.58,8.8025,M,39.7431,M,,*56
$GPVTG,177.121,T,173.387,M,7.1553,N,13.2516,K,A*1E
$GPZDA,095415.00,26,05,2024,00,00*6F
$GPHDT,175.446,T*30
$GPATT,095415.00,PI,0.1771,0.0463,RO,-0.3040,0.5286,HE,355.4463,0.0463,F,F,F,*1E
$GPRMC,095415.00,A,5407.1652036,N,00851.5472287,E,7.1553,177.121,260524,3.734,W,A*1F
$GPATT,095415.10,PI,0.1804,0.0463,RO,-0.3999,0.5286,HE,355.4682,0.0463,F,F,F,*12
$GPHDT,175.487,T*3D
$GPATT,095415.20,PI,0.1889,0.0463,RO,-0.4014,0.5286,HE,355.4873,0.0463,F,F,F,*1F
$GPATT,095415.30,PI,0.1744,0.0463,RO,-0.4038,0.5286,HE,355.5111,0.0463,F,F,F,*12
$GPHDT,175.533,T*33
$RDENS,35,3565373,PC
$GPATT,095415.40,PI,0.1797,0.0463,RO,-0.3790,0.5286,HE,355.5332,0.0463,F,F,F,*1A
$GPATT,095415.50,PI,0.1856,0.0463,RO,-0.4833,0.5286,HE,355.5532,0.0463,F,F,F,*1E
$GPHDT,175.584,T*3F
$GPATT,095415.60,PI,0.1847,0.0463,RO,-0.3892,0.5286,HE,355.5841,0.0463,F,F,F,*18
$GPATT,095415.70,PI,0.1822,0.0463,RO,-0.4266,0.5286,HE,355.6075,0.0463,F,F,F,*10
$GPHDT,175.631,T*32
$GPATT,095415.80,PI,0.1899,0.0463,RO,-0.3791,0.5286,HE,355.6314,0.0463,F,F,F,*11
$GPATT,095415.90,PI,0.1842,0.0463,RO,-0.4193,0.5286,HE,355.6521,0.0463,F,F,F,*15
$GPGGA,095416.00,5407.1632169,N,00851.5474044,E,1,23,0.58,8.8108,M,39.7431,M,,*5D
$GPVTG,177.105,T,173.370,M,7.1884,N,13.3128,K,A*1F
$GPZDA,095416.00,26,05,2024,00,00*6C
$GPHDT,175.671,T*36
$GPATT,095416.00,PI,0.1938,0.0463,RO,-0.4399,0.5286,HE,355.6708,0.0463,F,F,F,*12
$GPRMC,095416.00,A,5407.1632169,N,00851.5474044,E,7.1884,177.105,260524,3.734,W,A*1B
$GPATT,095416.10,PI,0.1895,0.0463,RO,-0.5032,0.5286,HE,355.6940,0.0463,F,F,F,*14
$GPHDT,175.712,T*32
$GPATT,095416.20,PI,0.1857,0.0463,RO,-0.5303,0.5286,HE,355.7119,0.0463,F,F,F,*1D
$GPATT,095416.30,PI,0.1877,0.0463,RO,-0.3815,0.5286,HE,355.7408,0.0463,F,F,F,*11
$GPHDT,175.762,T*35
$GPATT,095416.40,PI,0.1944,0.0463,RO,-0.4216,0.5286,HE,355.7622,0.0463,F,F,F,*13
$GPATT,095416.50,PI,0.1907,0.0463,RO,-0.3472,0.5286,HE,355.7885,0.0463,F,F,F,*15
$GPHDT,175.814,T*3B
$GPATT,095416.60,PI,0.1931,0.0463,RO,-0.3563,0.5286,HE,355.8135,0.0463,F,F,F,*1F
$GPATT,095416.70,PI,0.2066,0.0463,RO,-0.3578,0.5286,HE,355.8381,0.0463,F,F,F,*11
$GPHDT,175.864,T*3C
$GPATT,095416.80,PI,0.2025,0.0463,RO,-0.3485,0.5286,HE,355.8640,0.0463,F,F,F,*12
$RDENS,36,3565517,PC
$GPATT,095416.90,PI,0.2039,0.0463,RO,-0.4024,0.5286,HE,355.8891,0.0463,F,F,F,*14
$GPGGA,095417.00,5407.1612355,N,00851.5475597,E,1,23,0.58,8.7750,M,39.7431,M,,*5D
$GPVTG,177.678,T,173.943,M,7.1776,N,13.2930,K,A*1A
$GPZDA,095417.00,26,05,2024,00,00*6D
$GPHDT,175.915,T*3B
$GPATT,095417.00,PI,0.2171,0.0463,RO,-0.4227,0.5286,HE,355.9147,0.0463,F,F,F,*13
$GPRMC,095417.00,A,5407.1612355,N,00851.5475597,E,7.1776,177.678,260524,3.734,W,A*10
$GPATT,095417.10,PI,0.2035,0.0463,RO,-0.3954,0.5286,HE,355.9372,0.0463,F,F,F,*1F
$GPHDT,175.955,T*3F
$GPATT,095417.20,PI,0.2107,0.0463,RO,-0.3815,0.5286,HE,355.9550,0.0463,F,F,F,*1E
$GPATT,095417.30,PI,0.2001,0.0463,RO,-0.3438,0.5286,HE,355.9754,0.0463,F,F,F,*1D
$GPHDT,176.004,T*31
$GPATT,095417.40,PI,0.1990,0.0463,RO,-0.3669,0.5286,HE,356.0035,0.0463,F,F,F,*14
$GPATT,095417.50,PI,0.2081,0.0463,RO,-0.3302,0.5286,HE,356.0225,0.0463,F,F,F,*14
$GPHDT,176.043,T*32
$GPATT,095417.60,PI,0.1892,0.0463,RO,-0.3355,0.5286,HE,356.0429,0.0463,F,F,F,*16
$GPATT,095417.70,PI,0.1963,0.0463,RO,-0.2408,0.5286,HE,356.0696,0.0463,F,F,F,*10
$GPHDT,176.095,T*39
$GPATT,095417.80,PI,0.1942,0.0463,RO,-0.2843,0.5286,HE,356.0953,0.0463,F,F,F,*19
$GPATT,095417.90,PI,0.2040,0.0463,RO,-0.2579,0.5286,HE,356.1144,0.0463,F,F,F,*1B
$GPGGA,095418.00,5407.1592096,N,00851.5478102,E,1,21,0.64,9.0389,M,39.7431,M,,*5B
$GPVTG,177.552,T,173.818,M,7.2281,N,13.3864,K,A*11
$GPZDA,095418.00,26,05,2024,00,00*62
$GPHDT,176.139,T*3E
$GPATT,095418.00,PI,0.2110,0.0463,RO,-0.3432,0.5286,HE,356.1387,0.0463,F,F,F,*1B
$GPRMC,095418.00,A,5407.1592096,N,00851.5478102,E,7.2281,177.552,260524,3.734,W,A*18
$GPATT,095418.10,PI,0.2121,0.0463,RO,-0.2495,0.5286,HE,356.1657,0.0463,F,F,F,*1C
$GPHDT,176.193,T*3E
$GPATT,095418.20,PI,0.2091,0.0463,RO,-0.2246,0.5286,HE,356.1935,0.0463,F,F,F,*16
$GPATT,095418.30,PI,0.2146,0.0463,RO,-0.2067,0.5286,HE,356.2173,0.0463,F,F,F,*14
$RDENS,37,3565663,PC
$GPHDT,176.243,T*30
$GPATT,095418.40,PI,0.2125,0.0463,RO,-0.2046,0.5286,HE,356.2426,0.0463,F,F,F,*10
$GPATT,095418.50,PI,0.2118,0.0463,RO,-0.1291,0.5286,HE,356.2624,0.0463,F,F,F,*14
$GPHDT,176.286,T*39
$GPATT,095418.60,PI,0.2180,0.0463,RO,-0.1834,0.5286,HE,356.2864,0.0463,F,F,F,*19
$GPATT,095418.70,PI,0.2237,0.0463,RO,-0.2150,0.5286,HE,356.3129,0.0463,F,F,F,*1E
$GPHDT,176.342,T*30
$GPATT,095418.80,PI,0.2198,0.0463,RO,-0.1543,0.5286,HE,356.3425,0.0463,F,F,F,*1B
$GPATT,095418.90,PI,0.2103,0.0463,RO,-0.1281,0.5286,HE,356.3640,0.0463,F,F,F,*10
$GPGGA,095419.00,5407.1572175,N,00851.5479436,E,1,22,0.60,8.9842,M,39.7430,M,,*59
$GPVTG,177.933,T,174.199,M,7.2681,N,13.4606,K,A*14
$GPZDA,095419.00,26,05,2024,00,00*63
$GPHDT,176.388,T*36
$GPATT,095419.00,PI,0.2087,0.0463,RO,-0.1987,0.5286,HE,356.3878,0.0463,F,F,F,*1D
$GPRMC,095419.00,A,5407.1572175,N,00851.5479436,E,7.2681,177.933,260524,3.734,W,A*17
$GPATT,095419.10,PI,0.2168,0.0463,RO,0.0198,0.5286,HE,356.4292,0.0463,F,F,F,*3F
$GPHDT,176.457,T*33
$GPATT,095419.20,PI,0.2218,0.0463,RO,-0.1163,0.5286,HE,356.4569,0.0463,F,F,F,*13
$GPATT,095419.30,PI,0.2004,0.0463,RO,-0.1475,0.5286,HE,356.4773,0.0463,F,F,F,*16
$GPHDT,176.510,T*31
$GPATT,095419.40,PI,0.2137,0.0463,RO,-0.0611,0.5286,HE,356.5102,0.0463,F,F,F,*10
$GPATT,095419.50,PI,0.2166,0.0463,RO,-0.0359,0.5286,HE,356.5429,0.0463,F,F,F,*10
$GPHDT,176.574,T*33
$GPATT,095419.60,PI,0.2082,0.0463,RO,-0.0711,0.5286,HE,356.5742,0.0463,F,F,F,*1E
$GPATT,095419.70,PI,0.2069,0.0463,RO,-0.1239,0.5286,HE,356.5954,0.0463,F,F,F,*1D
$GPHDT,176.629,T*38
$RDENS,38,3565809,PC
$GPATT,095419.80,PI,0.2076,0.0463,RO,-0.1843,0.5286,HE,356.6292,0.0463,F,F,F,*19
$GPATT,095419.90,PI,0.2055,0.0463,RO,-0.1039,0.5286,HE,356.6594,0.0463,F,F,F,*1D
$GPGGA,095420.00,5407.1552002,N,00851.5480517,E,1,23,0.58,8.9789,M,39.7430,M,,*56
$GPVTG,178.403,T,174.668,M,7.3122,N,13.5423,K,A*17
$GPZDA,095420.00,26,05,2024,00,00*69
$GPHDT,176.692,T*38
$GPATT,095420.00,PI,0.2068,0.0463,RO,-0.1151,0.5286,HE,356.6921,0.0463,F,F,F,*1D
$GPRMC,095420.00,A,5407.1552002,N,00851.5480517,E,7.3122,178.403,260524,3.734,W,A*14
$GPATT,095420.10,PI,0.2311,0.0463,RO,-0.1069,0.5286,HE,356.7394,0.0463,F,F,F,*1E
$GPHDT,176.762,T*36
$GPATT,095420.20,PI,0.2141,0.0463,RO,-0.2968,0.5286,HE,356.7624,0.0463,F,F,F,*1F
$GPATT,095420.30,PI,0.2127,0.0463,RO,-0.0951,0.5286,HE,356.8060,0.0463,F,F,F,*1F
$GPHDT,176.832,T*3C
$GPATT,095420.40,PI,0.2049,0.0463,RO,-0.2424,0.5286,HE,356.8320,0.0463,F,F,F,*1B
$GPATT,095420.50,PI,0.2130,0.0463,RO,-0.1448,0.5286,HE,356.8771,0.0463,F,F,F,*1C
$GPHDT,176.922,T*3C
$GPATT,095420.60,PI,0.2208,0.0463,RO,-0.1128,0.5286,HE,356.9223,0.0463,F,F,F,*17
$GPATT,095420.70,PI,0.2108,0.0463,RO,-0.2742,0.5286,HE,356.9576,0.0463,F,F,F,*1B
$GPHDT,177.021,T*37
$GPATT,095420.80,PI,0.2218,0.0463,RO,-0.0519,0.5286,HE,357.0208,0.0463,F,F,F,*1E
$GPATT,095420.90,PI,0.2212,0.0463,RO,-0.2188,0.5286,HE,357.0670,0.0463,F,F,F,*10
$GPGGA,095421.00,5407.1531894,N,00851.5481279,E,1,22,0.58,8.9302,M,39.7430,M,,*5D
$GPVTG,179.273,T,175.539,M,7.3225,N,13.5614,K,A*13
$GPZDA,095421.00,26,05,2024,00,00*68
$GPHDT,177.111,T*35
$GPATT,095421.00,PI,0.1972,0.0463,RO,-0.3062,0.5286,HE,357.1114,0.0463,F,F,F,*16
$GPRMC,095421.00,A,5407.1531894,N,00851.5481279,E,7.3225,179.273,260524,3.734,W,A*1D
$GPATT,095421.10,PI,0.1971,0.0463,RO,-0.3341,0.5286,HE,357.1671,0.0463,F,F,F,*12
$GPHDT,177.237,T*32
$RDENS,39,3565953,PC
$GPATT,095421.20,PI,0.2122,0.0463,RO,-0.2732,0.5286,HE,357.2370,0.0463,F,F,F,*1A
$GPATT,095421.30,PI,0.2047,0.0463,RO,-0.3078,0.5286,HE,357.2929,0.0463,F,F,F,*17
$GPHDT,177.357,T*35
$GPATT,095421.40,PI,0.2155,0.0463,RO,-0.4138,0.5286,HE,357.3569,0.0463,F,F,F,*19
$GPATT,095421.50,PI,0.2099,0.0463,RO,-0.3877,0.5286,HE,357.4249,0.0463,F,F,F,*1E
$GPHDT,177.498,T*31
$GPATT,095421.60,PI,0.2087,0.0463,RO,-0.3793,0.5286,HE,357.4985,0.0463,F,F,F,*1C
$GPATT,095421.70,PI,0.2058,0.0463,RO,-0.4981,0.5286,HE,357.5770,0.0463,F,F,F,*10
$GPHDT,177.660,T*34
$GPATT,095421.80,PI,0.1798,0.0463,RO,-0.5349,0.5286,HE,357.6597,0.0463,F,F,F,*10
$GPATT,095421.90,PI,0.1854,0.0463,RO,-0.6217,0.5286,HE,357.7482,0.0463,F,F,F,*13
$GPGGA,095422.00,5407.1513086,N,00851.5481494,E,1,22,0.59,8.2369,M,39.7430,M,,*57
$GPVTG,180.506,T,176.772,M,7.3657,N,13.6412,K,A*18
$GPZDA,095422.00,26,05,2024,00,00*6B
$GPHDT,177.842,T*3A
$GPATT,095422.00,PI,0.1913,0.0463,RO,-0.5775,0.5286,HE,357.8417,0.0463,F,F,F,*1A
$GPRMC,095422.00,A,5407.1513086,N,00851.5481494,E,7.3657,180.506,260524,3.734,W,A*12
$GPATT,095422.10,PI,0.2043,0.0463,RO,-0.6694,0.5286,HE,357.9421,0.0463,F,F,F,*1D
$GPHDT,178.046,T*39
$GPATT,095422.20,PI,0.1982,0.0463,RO,-0.6013,0.5286,HE,358.0460,0.0463,F,F,F,*13
$GPATT,095422.30,PI,0.1966,0.0463,RO,-0.6602,0.5286,HE,358.1615,0.0463,F,F,F,*1F
$GPHDT,178.270,T*3E
$GPATT,095422.40,PI,0.2050,0.0463,RO,-0.7516,0.5286,HE,358.2701,0.0463,F,F,F,*17
$GPATT,095422.50,PI,0.1816,0.0463,RO,-0.9002,0.5286,HE,358.3808,0.0463,F,F,F,*16
$GPHDT,178.505,T*3B
$GPATT,095422.60,PI,0.1766,0.0463,RO,-0.8794,0.5286,HE,358.5051,0.0463,F,F,F,*16
$RDENS,40,3566098,PC
$GPATT,095422.70,PI,0.1692,0.0463,RO,-0.7486,0.5286,HE,358.6344,0.0463,F,F,F,*16
$GPHDT,178.772,T*39
$GPATT,095422.80,PI,0.1808,0.0463,RO,-0.7264,0.5286,HE,358.7716,0.0463,F,F,F,*1C
$GPATT,095422.90,PI,0.1825,0.0463,RO,-0.9689,0.5286,HE,358.8994,0.0463,F,F,F,*10
$GPGGA,095423.00,5407.1492723,N,00851.5480873,E,1,22,0.59,8.2178,M,39.7430,M,,*50
$GPVTG,181.320,T,177.586,M,7.3381,N,13.5902,K,A*12
$GPZDA,095423.00,26,05,2024,00,00*6A
$GPHDT,179.044,T*3A
$GPATT,095423.00,PI,0.1575,0.0463,RO,-0.7959,0.5286,HE,359.0437,0.0463,F,F,F,*11
$GPRMC,095423.00,A,5407.1492723,N,00851.5480873,E,7.3381,181.320,260524,3.734,W,A*1A
$GPATT,095423.10,PI,0.1677,0.0463,RO,-0.7307,0.5286,HE,359.1990,0.0463,F,F,F,*11
$GPHDT,179.350,T*3C
$GPATT,095423.20,PI,0.1813,0.0463,RO,-0.7855,0.5286,HE,359.3500,0.0463,F,F,F,*15
$GPATT,095423.30,PI,0.1633,0.0463,RO,-0.7437,0.5286,HE,359.5140,0.0463,F,F,F,*16
$GPHDT,179.662,T*38
$GPATT,095423.40,PI,0.1567,0.0463,RO,-0.7226,0.5286,HE,359.6623,0.0463,F,F,F,*14
$GPATT,095423.50,PI,0.1642,0.0463,RO,-0.7160,0.5286,HE,359.8353,0.0463,F,F,F,*1C
$GPHDT,180.008,T*34
$GPATT,095423.60,PI,0.1665,0.0463,RO,-0.7372,0.5286,HE,0.0078,0.0463,F,F,F,*16
$GPATT,095423.70,PI,0.1632,0.0463,RO,-0.6190,0.5286,HE,0.1919,0.0463,F,F,F,*15
$GPHDT,180.372,T*3A
$GPATT,095423.80,PI,0.1701,0.0463,RO,-0.7021,0.5286,HE,0.3723,0.0463,F,F,F,*14
$GPATT,095423.90,PI,0.1823,0.0463,RO,-0.8030,0.5286,HE,0.5576,0.0463,F,F,F,*11
$GPGGA,095424.00,5407.1472201,N,00851.5479084,E,1,22,0.59,8.3550,M,39.7430,M,,*55
$GPVTG,182.250,T,178.516,M,7.2794,N,13.4814,K,A*17
$GPZDA,095424.00,26,05,2024,00,00*6D
$GPHDT,180.753,T*3D
$GPATT,095424.00,PI,0.1928,0.0463,RO,-0.6770,0.5286,HE,0.7533,0.0463,F,F,F,*1B
$RDENS,41,3566242,PC
$GPRMC,095424.00,A,5407.1472201,N,00851.5479084,E,7.2794,182.250,260524,3.734,W,A*14
$GPATT,095424.10,PI,0.2034,0.0463,RO,-0.5843,0.5286,HE,0.9584,0.0463,F,F,F,*13
$GPHDT,181.150,T*39
$GPATT,095424.20,PI,0.1983,0.0463,RO,-0.6854,0.5286,HE,1.1504,0.0463,F,F,F,*12
$GPATT,095424.30,PI,0.1927,0.0463,RO,-0.5457,0.5286,HE,1.3557,0.0463,F,F,F,*15
$GPHDT,181.568,T*36
$GPATT,095424.40,PI,0.1869,0.0463,RO,-0.5821,0.5286,HE,1.5678,0.0463,F,F,F,*1C
$GPATT,095424.50,PI,0.1673,0.0463,RO,-0.4842,0.5286,HE,1.7877,0.0463,F,F,F,*1F
$GPHDT,182.007,T*39
$GPATT,095424.60,PI,0.1764,0.0463,RO,-0.4526,0.5286,HE,2.0073,0.0463,F,F,F,*1C
$GPATT,095424.70,PI,0.1703,0.0463,RO,-0.4315,0.5286,HE,2.2378,0.0463,F,F,F,*10
$GPHDT,182.470,T*3D
$GPATT,095424.80,PI,0.1552,0.0463,RO,-0.2307,0.5286,HE,2.4701,0.0463,F,F,F,*10
$GPATT,095424.90,PI,0.1575,0.0463,RO,-0.1049,0.5286,HE,2.7138,0.0463,F,F,F,*11
$GPGGA,095425.00,5407.1452138,N,00851.5477242,E,1,22,0.59,8.3538,M,39.7429,M,,*5F
$GPVTG,183.756,T,180.022,M,7.2027,N,13.3394,K,A*1B
$GPZDA,095425.00,26,05,2024,00,00*6C
$GPHDT,182.959,T*3B
$GPATT,095425.00,PI,0.1565,0.0463,RO,0.0727,0.5286,HE,2.9588,0.0463,F,F,F,*3A
$GPRMC,095425.00,A,5407.1452138,N,00851.5477242,E,7.2027,183.756,260524,3.734,W,A*15
$GPATT,095425.10,PI,0.1362,0.0463,RO,0.0784,0.5286,HE,3.2074,0.0463,F,F,F,*3F
$GPHDT,183.457,T*39
$GPATT,095425.20,PI,0.1502,0.0463,RO,0.1042,0.5286,HE,3.4567,0.0463,F,F,F,*31
$GPATT,095425.30,PI,0.1533,0.0463,RO,0.1306,0.5286,HE,3.7135,0.0463,F,F,F,*31
$GPHDT,183.963,T*33
$GPATT,095425.40,PI,0.1447,0.0463,RO,0.1617,0.5286,HE,3.9626,0.0463,F,F,F,*3A
$GPATT,095425.50,PI,0.1400,0.0463,RO,0.1786,0.5286,HE,4.2173,0.0463,F,F,F,*3A
$RDENS,42,3566388,PC
$GPHDT,184.491,T*34
$GPATT,095425.60,PI,0.1311,0.0463,RO,0.2071,0.5286,HE,4.4908,0.0463,F,F,F,*30
$GPATT,095425.70,PI,0.1235,0.0463,RO,0.4101,0.5286,HE,4.7590,0.0463,F,F,F,*38
$GPHDT,185.036,T*3C
$GPATT,095425.80,PI,0.1115,0.0463,RO,0.5868,0.5286,HE,5.0360,0.0463,F,F,F,*3E
$GPATT,095425.90,PI,0.1060,0.0463,RO,0.5408,0.5286,HE,5.2980,0.0463,F,F,F,*30
$GPGGA,095426.00,5407.1432169,N,00851.5474579,E,1,22,0.59,8.3532,M,39.7429,M,,*58
$GPVTG,185.718,T,181.984,M,7.1759,N,13.2898,K,A*18
$GPZDA,095426.00,26,05,2024,00,00*6F
$GPHDT,185.578,T*33
$GPATT,095426.00,PI,0.1090,0.0463,RO,0.6805,0.5286,HE,5.5777,0.0463,F,F,F,*36
$GPRMC,095426.00,A,5407.1432169,N,00851.5474579,E,7.1759,185.718,260524,3.734,W,A*19
$GPATT,095426.10,PI,0.1221,0.0463,RO,1.0073,0.5286,HE,5.8722,0.0463,F,F,F,*3C
$GPHDT,186.172,T*3E
$GPATT,095426.20,PI,0.1657,0.0463,RO,1.5091,0.5286,HE,6.1719,0.0463,F,F,F,*31
$GPATT,095426.30,PI,0.1217,0.0463,RO,1.5993,0.5286,HE,6.4542,0.0463,F,F,F,*32
$GPHDT,186.732,T*3C
$GPATT,095426.40,PI,0.1019,0.0463,RO,1.6209,0.5286,HE,6.7325,0.0463,F,F,F,*36
$GPATT,095426.50,PI,0.1032,0.0463,RO,1.6041,0.5286,HE,7.0251,0.0463,F,F,F,*34
$GPHDT,187.312,T*3B
$GPATT,095426.60,PI,0.1068,0.0463,RO,1.4191,0.5286,HE,7.3115,0.0463,F,F,F,*36
$GPATT,095426.70,PI,0.0960,0.0463,RO,1.4289,0.5286,HE,7.6132,0.0463,F,F,F,*3D
$GPHDT,187.896,T*3C
$GPATT,095426.80,PI,0.0783,0.0463,RO,1.4466,0.5286,HE,7.8958,0.0463,F,F,F,*3C
$GPATT,095426.90,PI,0.0938,0.0463,RO,1.4781,0.5286,HE,8.2038,0.0463,F,F,F,*33
$GPGGA,095427.00,5407.1412636,N,00851.5470382,E,1,22,0.59,8.3481,M,39.7429,M,,*59
$RDENS,43,3566534,PC
$GPVTG,188.623,T,184.889,M,7.0433,N,13.0441,K,A*11
$GPZDA,095427.00,26,05,2024,00,00*6E
$GPHDT,188.514,T*34
$GPATT,095427.00,PI,0.0993,0.0463,RO,1.5133,0.5286,HE,8.5143,0.0463,F,F,F,*3E
$GPRMC,095427.00,A,5407.1412636,N,00851.5470382,E,7.0433,188.623,260524,3.734,W,A*1B
$GPATT,095427.10,PI,0.1056,0.0463,RO,1.5779,0.5286,HE,8.8165,0.0463,F,F,F,*3F
$GPHDT,189.126,T*30
$GPATT,095427.20,PI,0.0986,0.0463,RO,1.8036,0.5286,HE,9.1262,0.0463,F,F,F,*34
$GPATT,095427.30,PI,0.0911,0.0463,RO,2.0379,0.5286,HE,9.4387,0.0463,F,F,F,*37
$GPHDT,189.744,T*32
$GPATT,095427.40,PI,0.0984,0.0463,RO,2.1147,0.5286,HE,9.7437,0.0463,F,F,F,*3D
$GPATT,095427.50,PI,0.1091,0.0463,RO,2.1698,0.5286,HE,10.0515,0.0463,F,F,F,*0B
$GPHDT,190.360,T*38
$GPATT,095427.60,PI,0.1087,0.0463,RO,2.1303,0.5286,HE,10.3600,0.0463,F,F,F,*0C
$GPATT,095427.70,PI,0.1031,0.0463,RO,2.2365,0.5286,HE,10.6772,0.0463,F,F,F,*02
$GPHDT,190.974,T*37
$GPATT,095427.80,PI,0.0873,0.0463,RO,2.3284,0.5286,HE,10.9741,0.0463,F,F,F,*02
$GPATT,095427.90,PI,0.1084,0.0463,RO,2.3750,0.5286,HE,11.2718,0.0463,F,F,F,*08
$GPGGA,095428.00,5407.1393355,N,00851.5464720,E,1,20,0.63,8.3418,M,39.7429,M,,*5A
$GPVTG,191.196,T,187.461,M,6.9985,N,12.9613,K,A*1C
$GPZDA,095428.00,26,05,2024,00,00*61
$GPHDT,191.580,T*31
$GPATT,095428.00,PI,0.1126,0.0463,RO,2.4838,0.5286,HE,11.5798,0.0463,F,F,F,*0E
$GPRMC,095428.00,A,5407.1393355,N,00851.5464720,E,6.9985,191.196,260524,3.734,W,A*1A
$GPATT,095428.10,PI,0.0827,0.0463,RO,2.4759,0.5286,HE,11.8991,0.0463,F,F,F,*04
$GPHDT,192.208,T*35
$GPATT,095428.20,PI,0.1008,0.0463,RO,2.6225,0.5286,HE,12.2081,0.0463,F,F,F,*0E
$GPATT,095428.30,PI,0.0891,0.0463,RO,2.5882,0.5286,HE,12.5194,0.0463,F,F,F,*00
$GPHDT,192.816,T*30
$GPATT,095428.40,PI,0.0952,0.0463,RO,2.5416,0.5286,HE,12.8161,0.0463,F,F,F,*0F
$GPATT,095428.50,PI,0.0756,0.0463,RO,2.5524,0.5286,HE,13.1186,0.0463,F,F,F,*05
$RDENS,44,3566681,PC
$GPHDT,193.416,T*3D
$GPATT,095428.60,PI,0.0757,0.0463,RO,2.5949,0.5286,HE,13.4160,0.0463,F,F,F,*0D
$GPATT,095428.70,PI,0.0896,0.0463,RO,2.6576,0.5286,HE,13.7249,0.0463,F,F,F,*06
$GPHDT,194.027,T*3C
$GPATT,095428.80,PI,0.0934,0.0463,RO,2.6224,0.5286,HE,14.0268,0.0463,F,F,F,*03
$GPATT,095428.90,PI,0.0858,0.0463,RO,2.6143,0.5286,HE,14.3330,0.0463,F,F,F,*04
$GPGGA,095429.00,5407.1374377,N,00851.5457712,E,1,20,0.64,8.3373,M,39.7429,M,,*5E
$GPVTG,193.242,T,189.508,M,6.9958,N,12.9563,K,A*10
$GPZDA,095429.00,26,05,2024,00,00*60
$GPHDT,194.634,T*38
$GPATT,095429.00,PI,0.0782,0.0463,RO,2.6481,0.5286,HE,14.6336,0.0463,F,F,F,*0C
$GPRMC,095429.00,A,5407.1374377,N,00851.5457712,E,6.9958,193.242,260524,3.734,W,A*1B
$GPATT,095429.10,PI,0.0609,0.0463,RO,2.6759,0.5286,HE,14.9314,0.0463,F,F,F,*06
$GPHDT,195.236,T*3F
$GPATT,095429.20,PI,0.0693,0.0463,RO,2.6206,0.5286,HE,15.2360,0.0463,F,F,F,*00
$GPATT,095429.30,PI,0.0624,0.0463,RO,2.7086,0.5286,HE,15.5197,0.0463,F,F,F,*0B
$GPHDT,195.816,T*37
$GPATT,095429.40,PI,0.0657,0.0463,RO,2.6631,0.5286,HE,15.8156,0.0463,F,F,F,*03
$GPATT,095429.50,PI,0.0558,0.0463,RO,2.7165,0.5286,HE,16.1173,0.0463,F,F,F,*04
$GPHDT,196.401,T*3E
$GPATT,095429.60,PI,0.0383,0.0463,RO,2.6744,0.5286,HE,16.4012,0.0463,F,F,F,*00
$GPATT,095429.70,PI,0.0422,0.0463,RO,2.6048,0.5286,HE,16.6862,0.0463,F,F,F,*0B
$GPHDT,196.975,T*30
$GPATT,095429.80,PI,0.0109,0.0463,RO,2.6995,0.5286,HE,16.9747,0.0463,F,F,F,*06
$GPATT,095429.90,PI,0.0274,0.0463,RO,2.6250,0.5286,HE,17.2610,0.0463,F,F,F,*05
$RDENS,45,3566829,PC
$GPGGA,095430.00,5407.1355664,N,00851.5449654,E,1,22,0.59,8.3112,M,39.7429,M,,*57
$GPVTG,195.642,T,191.907,M,6.9284,N,12.8314,K,A*15
$GPZDA,095430.00,26,05,2024,00,00*68
$GPHDT,197.532,T*3E
$GPATT,095430.00,PI,0.0159,0.0463,RO,2.5312,0.5286,HE,17.5321,0.0463,F,F,F,*0C
$GPRMC,095430.00,A,5407.1355664,N,00851.5449654,E,6.9284,195.642,260524,3.734,W,A*13
$GPATT,095430.10,PI,0.0375,0.0463,RO,2.5826,0.5286,HE,17.8296,0.0463,F,F,F,*0D
$GPHDT,198.104,T*30
$GPATT,095430.20,PI,0.0158,0.0463,RO,2.5048,0.5286,HE,18.1038,0.0463,F,F,F,*03
$GPATT,095430.30,PI,0.0096,0.0463,RO,2.5469,0.5286,HE,18.3832,0.0463,F,F,F,*06
$GPHDT,198.667,T*32
$GPATT,095430.40,PI,-0.0019,0.0463,RO,2.5713,0.5286,HE,18.6667,0.0463,F,F,F,*2E
$GPATT,095430.50,PI,-0.0083,0.0463,RO,2.5185,0.5286,HE,18.9418,0.0463,F,F,F,*20
$GPHDT,199.222,T*36
$GPATT,095430.60,PI,-0.0124,0.0463,RO,2.5280,0.5286,HE,19.2221,0.0463,F,F,F,*2F
$GPATT,095430.70,PI,-0.0107,0.0463,RO,2.5066,0.5286,HE,19.5005,0.0463,F,F,F,*26
$GPHDT,199.767,T*32
$GPATT,095430.80,PI,-0.0028,0.0463,RO,2.6221,0.5286,HE,19.7666,0.0463,F,F,F,*26
$GPATT,095430.90,PI,-0.0227,0.0463,RO,2.4206,0.5286,HE,20.0357,0.0463,F,F,F,*27
$GPGGA,095431.00,5407.1337883,N,00851.5437726,E,1,21,0.62,8.8219,M,39.7428,M,,*51
$GPVTG,197.746,T,194.012,M,6.8965,N,12.7724,K,A*17
$GPZDA,095431.00,26,05,2024,00,00*69
$GPHDT,200.294,T*38
$GPATT,095431.00,PI,-0.0155,0.0463,RO,2.3419,0.5286,HE,20.2935,0.0463,F,F,F,*2A
$GPRMC,095431.00,A,5407.1337883,N,00851.5437726,E,6.8965,197.746,260524,3.734,W,A*1E
$GPATT,095431.10,PI,-0.0142,0.0463,RO,2.4032,0.5286,HE,20.5596,0.0463,F,F,F,*25
$GPHDT,200.820,T*3D
$GPATT,095431.20,PI,-0.0233,0.0463,RO,2.2098,0.5286,HE,20.8200,0.0463,F,F,F,*20
$GPATT,095431.30,PI,-0.0183,0.0463,RO,2.0982,0.5286,HE,21.0843,0.0463,F,F,F,*2D
$GPHDT,201.345,T*34
$GPATT,095431.40,PI,-0.0150,0.0463,RO,1.9851,0.5286,HE,21.3449,0.0463,F,F,F,*24
$RDENS,46,3566977,PC
$GPATT,095431.50,PI,-0.0252,0.0463,RO,1.9702,0.5286,HE,21.6071,0.0463,F,F,F,*27
$GPHDT,201.872,T*3B
$GPATT,095431.60,PI,-0.0263,0.0463,RO,2.0085,0.5286,HE,21.8722,0.0463,F,F,F,*2B
$GPATT,095431.70,PI,-0.0264,0.0463,RO,2.0455,0.5286,HE,22.1345,0.0463,F,F,F,*2B
$GPHDT,202.380,T*3E
$GPATT,095431.80,PI,-0.0507,0.0463,RO,1.9809,0.5286,HE,22.3800,0.0463,F,F,F,*21
$GPATT,095431.90,PI,-0.0410,0.0463,RO,2.0553,0.5286,HE,22.6491,0.0463,F,F,F,*2E
$GPGGA,095432.00,5407.1319798,N,00851.5427226,E,1,21,0.62,8.8044,M,39.7428,M,,*55
$GPVTG,199.769,T,196.035,M,6.8330,N,12.6546,K,A*1E
$GPZDA,095432.00,26,05,2024,00,00*6A
$GPHDT,202.910,T*3D
$GPATT,095432.00,PI,-0.0311,0.0463,RO,2.0496,0.5286,HE,22.9102,0.0463,F,F,F,*2A
$GPRMC,095432.00,A,5407.1319798,N,00851.5427226,E,6.8330,199.769,260524,3.734,W,A*19
$GPATT,095432.10,PI,-0.0233,0.0463,RO,2.1871,0.5286,HE,23.1757,0.0463,F,F,F,*21
$GPHDT,203.421,T*33
$GPATT,095432.20,PI,-0.0256,0.0463,RO,2.0485,0.5286,HE,23.4214,0.0463,F,F,F,*20
$GPATT,095432.30,PI,-0.0193,0.0463,RO,1.9872,0.5286,HE,23.6777,0.0463,F,F,F,*27
$GPHDT,203.919,T*35
$GPATT,095432.40,PI,-0.0393,0.0463,RO,1.9171,0.5286,HE,23.9189,0.0463,F,F,F,*20
$GPATT,095432.50,PI,-0.0200,0.0463,RO,1.9392,0.5286,HE,24.1695,0.0463,F,F,F,*20
$GPHDT,204.403,T*34
$GPATT,095432.60,PI,-0.0303,0.0463,RO,1.7402,0.5286,HE,24.4026,0.0463,F,F,F,*2A
$GPATT,095432.70,PI,-0.0320,0.0463,RO,1.7360,0.5286,HE,24.6443,0.0463,F,F,F,*2C
$GPHDT,204.889,T*3A
$GPATT,095432.80,PI,-0.0563,0.0463,RO,1.7856,0.5286,HE,24.8891,0.0463,F,F,F,*21
$GPATT,095432.90,PI,-0.0598,0.0463,RO,1.9969,0.5286,HE,25.1379,0.0463,F,F,F,*22
$RDENS,47,3567129,PC
$GPGGA,095433.00,5407.1302199,N,00851.5417045,E,1,20,0.64,8.6352,M,39.7428,M,,*50
$GPVTG,200.645,T,196.911,M,6.8616,N,12.7077,K,A*1A
$GPZDA,095433.00,26,05,2024,00,00*6B
$GPHDT,205.369,T*3E
$GPATT,095433.00,PI,-0.0730,0.0463,RO,1.9421,0.5286,HE,25.3686,0.0463,F,F,F,*2C
$GPRMC,095433.00,A,5407.1302199,N,00851.5417045,E,6.8616,200.645,260524,3.734,W,A*1C
$GPATT,095433.10,PI,-0.0387,0.0463,RO,1.9732,0.5286,HE,25.6137,0.0463,F,F,F,*2C
$GPHDT,205.841,T*3F
$GPATT,095433.20,PI,-0.0271,0.0463,RO,1.8736,0.5286,HE,25.8409,0.0463,F,F,F,*24
$GPATT,095433.30,PI,-0.0176,0.0463,RO,1.8368,0.5286,HE,26.0694,0.0463,F,F,F,*23
$GPHDT,206.295,T*3F
$GPATT,095433.40,PI,-0.0127,0.0463,RO,1.8645,0.5286,HE,26.2952,0.0463,F,F,F,*2D
$GPATT,095433.50,PI,-0.0046,0.0463,RO,1.8797,0.5286,HE,26.5164,0.0463,F,F,F,*2E
$GPHDT,206.739,T*3C
$GPATT,095433.60,PI,0.0054,0.0463,RO,1.9287,0.5286,HE,26.7392,0.0463,F,F,F,*0F
$GPATT,095433.70,PI,0.0121,0.0463,RO,1.8457,0.5286,HE,26.9431,0.0463,F,F,F,*07
$GPHDT,207.148,T*3D
$GPATT,095433.80,PI,-0.0019,0.0463,RO,1.9441,0.5286,HE,27.1483,0.0463,F,F,F,*29
$GPATT,095433.90,PI,0.0128,0.0463,RO,1.9215,0.5286,HE,27.3554,0.0463,F,F,F,*08
$GPGGA,095434.00,5407.1284588,N,00851.5405643,E,1,20,0.64,8.6145,M,39.7428,M,,*5B
$GPVTG,201.244,T,197.510,M,6.7844,N,12.5647,K,A*13
$GPZDA,095434.00,26,05,2024,00,00*6C
$GPHDT,207.569,T*3A
$GPATT,095434.00,PI,-0.0109,0.0463,RO,2.0778,0.5286,HE,27.5694,0.0463,F,F,F,*25
